{
"type": "FeatureCollection",
"crs": { "type": "name", "properties": { "name": "urn:ogc:def:crs:OGC:1.3:CRS84" } },
                                                                                
"features": [
{ "type": "Feature", "properties": { "Site Name": "Armenian Monastery, Vienna", "University": "Duke University", "Full Name": "Yektan Turkyilmaz", "Award Year": "2003", "Dissertati": "Imagining 'Turkey,' Creating a Nation: The Politics of Geography and State Formation in Eastern Anatolia, 1908-1938", "City": "Vienna", "State": null, "Country": "Austria", "addrtype": "locality", "addrlocat": "APPROXIMATE" }, "geometry": { "type": "Point", "coordinates": [ 16.3738189, 48.208174299999989 ] } },
{ "type": "Feature", "properties": { "Site Name": "Armenian National Library (Azkayin Krataran)", "University": "Duke University", "Full Name": "Yektan Turkyilmaz", "Award Year": "2003", "Dissertati": "Imagining 'Turkey,' Creating a Nation: The Politics of Geography and State Formation in Eastern Anatolia, 1908-1938", "City": "Yerevan", "State": null, "Country": "Armenia", "addrtype": "locality", "addrlocat": "APPROXIMATE" }, "geometry": { "type": "Point", "coordinates": [ 44.4991029, 40.1791857 ] } },
{ "type": "Feature", "properties": { "Site Name": "Cumhuriyet Arsivi (Republican Archives, Turkey)", "University": "Duke University", "Full Name": "Yektan Turkyilmaz", "Award Year": "2003", "Dissertati": "Imagining 'Turkey,' Creating a Nation: The Politics of Geography and State Formation in Eastern Anatolia, 1908-1938", "City": "Ankara", "State": null, "Country": "Turkey", "addrtype": "locality", "addrlocat": "APPROXIMATE" }, "geometry": { "type": "Point", "coordinates": [ 32.8597419, 39.9333635 ] } },
{ "type": "Feature", "properties": { "Site Name": "Library of the Academy (Akedmiyayi Krataran)", "University": "Duke University", "Full Name": "Yektan Turkyilmaz", "Award Year": "2003", "Dissertati": "Imagining 'Turkey,' Creating a Nation: The Politics of Geography and State Formation in Eastern Anatolia, 1908-1938", "City": "Yerevan", "State": null, "Country": "Armenia", "addrtype": "locality", "addrlocat": "APPROXIMATE" }, "geometry": { "type": "Point", "coordinates": [ 44.4991029, 40.1791857 ] } },
{ "type": "Feature", "properties": { "Site Name": "Turkish National Library (Milli Kutuphane)", "University": "Duke University", "Full Name": "Yektan Turkyilmaz", "Award Year": "2003", "Dissertati": "Imagining 'Turkey,' Creating a Nation: The Politics of Geography and State Formation in Eastern Anatolia, 1908-1938", "City": "Ankara", "State": null, "Country": "Turkey", "addrtype": "locality", "addrlocat": "APPROXIMATE" }, "geometry": { "type": "Point", "coordinates": [ 32.8597419, 39.9333635 ] } },
{ "type": "Feature", "properties": { "Site Name": "Alexander Black private collection", "University": "University of Chicago", "Full Name": "Kaveh Askari", "Award Year": "2004", "Dissertati": "American Cinema and the Pictorial Tradition 1894-1918", "City": "Chicago", "State": "IL", "Country": "USA", "addrtype": "premise", "addrlocat": "ROOFTOP" }, "geometry": { "type": "Point", "coordinates": [ -87.5902956, 41.7857443 ] } },
{ "type": "Feature", "properties": { "Site Name": "Columbia University Library", "University": "University of Chicago", "Full Name": "Kaveh Askari", "Award Year": "2004", "Dissertati": "American Cinema and the Pictorial Tradition 1894-1918", "City": "New York", "State": "NY", "Country": "USA", "addrtype": "locality", "addrlocat": "APPROXIMATE" }, "geometry": { "type": "Point", "coordinates": [ -74.005941299999989, 40.7127837 ] } },
{ "type": "Feature", "properties": { "Site Name": "Lincoln Centre Performing Arts Library", "University": "University of Chicago", "Full Name": "Kaveh Askari", "Award Year": "2004", "Dissertati": "American Cinema and the Pictorial Tradition 1894-1918", "City": "New York", "State": "NY", "Country": "USA", "addrtype": "locality", "addrlocat": "APPROXIMATE" }, "geometry": { "type": "Point", "coordinates": [ -74.005941299999989, 40.7127837 ] } },
{ "type": "Feature", "properties": { "Site Name": "Princeton University Library", "University": "University of Chicago", "Full Name": "Kaveh Askari", "Award Year": "2004", "Dissertati": "American Cinema and the Pictorial Tradition 1894-1918", "City": "Princeton", "State": "NJ", "Country": "USA", "addrtype": "locality", "addrlocat": "APPROXIMATE" }, "geometry": { "type": "Point", "coordinates": [ -74.667222599999988, 40.357297599999988 ] } },
{ "type": "Feature", "properties": { "Site Name": "St. Lawrence University Library", "University": "University of Chicago", "Full Name": "Kaveh Askari", "Award Year": "2004", "Dissertati": "American Cinema and the Pictorial Tradition 1894-1918", "City": "Canton", "State": "NY", "Country": "USA", "addrtype": "locality", "addrlocat": "APPROXIMATE" }, "geometry": { "type": "Point", "coordinates": [ -75.169094199999989, 44.5956163 ] } },
{ "type": "Feature", "properties": { "Site Name": "Asiatic Society, Kolkata", "University": "University of Massachusetts-Amherst", "Full Name": "Prateeti Ballal", "Award Year": "2004", "Dissertati": "Discipling the Nations: Religion and Colonial Intervention in Late Eighteenth- and Early Nineteenth-Century India", "City": "Kolkata", "State": null, "Country": "India", "addrtype": "locality", "addrlocat": "APPROXIMATE" }, "geometry": { "type": "Point", "coordinates": [ 88.363895, 22.572646 ] } },
{ "type": "Feature", "properties": { "Site Name": "British Library", "University": "University of Massachusetts-Amherst", "Full Name": "Prateeti Ballal", "Award Year": "2004", "Dissertati": "Discipling the Nations: Religion and Colonial Intervention in Late Eighteenth- and Early Nineteenth-Century India", "City": "London", "State": null, "Country": "United Kingdom", "addrtype": "locality", "addrlocat": "APPROXIMATE" }, "geometry": { "type": "Point", "coordinates": [ -0.1277583, 51.507350899999985 ] } },
{ "type": "Feature", "properties": { "Site Name": "National Library of India", "University": "University of Massachusetts-Amherst", "Full Name": "Prateeti Ballal", "Award Year": "2004", "Dissertati": "Discipling the Nations: Religion and Colonial Intervention in Late Eighteenth- and Early Nineteenth-Century India", "City": "Kolkata", "State": null, "Country": "India", "addrtype": "locality", "addrlocat": "APPROXIMATE" }, "geometry": { "type": "Point", "coordinates": [ 88.363895, 22.572646 ] } },
{ "type": "Feature", "properties": { "Site Name": "Parliamentary Archives of the United Kingdom", "University": "University of Massachusetts-Amherst", "Full Name": "Prateeti Ballal", "Award Year": "2004", "Dissertati": "Discipling the Nations: Religion and Colonial Intervention in Late Eighteenth- and Early Nineteenth-Century India", "City": "London", "State": null, "Country": "United Kingdom", "addrtype": "locality", "addrlocat": "APPROXIMATE" }, "geometry": { "type": "Point", "coordinates": [ -0.1277583, 51.507350899999985 ] } },
{ "type": "Feature", "properties": { "Site Name": "Princeton Theological Seminary Library", "University": "University of Massachusetts-Amherst", "Full Name": "Prateeti Ballal", "Award Year": "2004", "Dissertati": "Discipling the Nations: Religion and Colonial Intervention in Late Eighteenth- and Early Nineteenth-Century India", "City": "Princeton", "State": "NJ", "Country": "USA", "addrtype": "locality", "addrlocat": "APPROXIMATE" }, "geometry": { "type": "Point", "coordinates": [ -74.667222599999988, 40.357297599999988 ] } },
{ "type": "Feature", "properties": { "Site Name": "Regent's Park College, Oxford", "University": "University of Massachusetts-Amherst", "Full Name": "Prateeti Ballal", "Award Year": "2004", "Dissertati": "Discipling the Nations: Religion and Colonial Intervention in Late Eighteenth- and Early Nineteenth-Century India", "City": "Oxford", "State": null, "Country": "United Kingdom", "addrtype": "locality", "addrlocat": "APPROXIMATE" }, "geometry": { "type": "Point", "coordinates": [ -1.2577263, 51.752020899999984 ] } },
{ "type": "Feature", "properties": { "Site Name": "Union Theological Seminary Library", "University": "University of Massachusetts-Amherst", "Full Name": "Prateeti Ballal", "Award Year": "2004", "Dissertati": "Discipling the Nations: Religion and Colonial Intervention in Late Eighteenth- and Early Nineteenth-Century India", "City": "New York", "State": "NY", "Country": "USA", "addrtype": "locality", "addrlocat": "APPROXIMATE" }, "geometry": { "type": "Point", "coordinates": [ -74.005941299999989, 40.7127837 ] } },
{ "type": "Feature", "properties": { "Site Name": "Isham Memorial Library, Harvard University", "University": "Duke University", "Full Name": "Samuel Breene", "Award Year": "2004", "Dissertati": "Mozart's Violin Sonatas and Gestures of Embodiment: Toward a New Model of Performance Practice", "City": "Boston", "State": "MA", "Country": "USA", "addrtype": "locality", "addrlocat": "APPROXIMATE" }, "geometry": { "type": "Point", "coordinates": [ -71.058880099999968, 42.3600825 ] } },
{ "type": "Feature", "properties": { "Site Name": "Ésterreichische Nationalbibliothek", "University": "Duke University", "Full Name": "Samuel Breene", "Award Year": "2004", "Dissertati": "Mozart's Violin Sonatas and Gestures of Embodiment: Toward a New Model of Performance Practice", "City": "Vienna", "State": null, "Country": "Austria", "addrtype": "locality", "addrlocat": "APPROXIMATE" }, "geometry": { "type": "Point", "coordinates": [ 16.3738189, 48.208174299999989 ] } },
{ "type": "Feature", "properties": { "Site Name": "Wiener Stadt- und Landesbibliothek", "University": "Duke University", "Full Name": "Samuel Breene", "Award Year": "2004", "Dissertati": "Mozart's Violin Sonatas and Gestures of Embodiment: Toward a New Model of Performance Practice", "City": "Vienna", "State": null, "Country": "Austria", "addrtype": "locality", "addrlocat": "APPROXIMATE" }, "geometry": { "type": "Point", "coordinates": [ 16.3738189, 48.208174299999989 ] } },
{ "type": "Feature", "properties": { "Site Name": "Biblioteca Nazionale of Florence", "University": "Rutgers, the State University of New Jersey", "Full Name": "Meghan Callahan", "Award Year": "2004", "Dissertati": "The Politics of Architecture: Suor Domenica da Paradiso and Her Convent of La Crocetta in Post-Savonarolan Florence", "City": "Florence", "State": null, "Country": "Italy", "addrtype": "locality", "addrlocat": "APPROXIMATE" }, "geometry": { "type": "Point", "coordinates": [ 11.2558136, 43.769560399999989 ] } },
{ "type": "Feature", "properties": { "Site Name": "Convent of La Crocetta archives", "University": "Rutgers, the State University of New Jersey", "Full Name": "Meghan Callahan", "Award Year": "2004", "Dissertati": "The Politics of Architecture: Suor Domenica da Paradiso and Her Convent of La Crocetta in Post-Savonarolan Florence", "City": "Florence", "State": null, "Country": "Italy", "addrtype": "locality", "addrlocat": "APPROXIMATE" }, "geometry": { "type": "Point", "coordinates": [ 11.2558136, 43.769560399999989 ] } },
{ "type": "Feature", "properties": { "Site Name": "Lea Collection, University of Pennsylvania", "University": "Rutgers, the State University of New Jersey", "Full Name": "Meghan Callahan", "Award Year": "2004", "Dissertati": "The Politics of Architecture: Suor Domenica da Paradiso and Her Convent of La Crocetta in Post-Savonarolan Florence", "City": "Philadelphia", "State": "PA", "Country": "USA", "addrtype": "locality", "addrlocat": "APPROXIMATE" }, "geometry": { "type": "Point", "coordinates": [ -75.165221499999987, 39.952583899999986 ] } },
{ "type": "Feature", "properties": { "Site Name": "Ospedale degli Innocenti", "University": "Rutgers, the State University of New Jersey", "Full Name": "Meghan Callahan", "Award Year": "2004", "Dissertati": "The Politics of Architecture: Suor Domenica da Paradiso and Her Convent of La Crocetta in Post-Savonarolan Florence", "City": "Florence", "State": null, "Country": "Italy", "addrtype": "locality", "addrlocat": "APPROXIMATE" }, "geometry": { "type": "Point", "coordinates": [ 11.2558136, 43.769560399999989 ] } },
{ "type": "Feature", "properties": { "Site Name": "Biblioteca Zikawei", "University": "University of California, Berkeley", "Full Name": "Michelle King", "Award Year": "2004", "Dissertati": "Infanticide as an Object of Knowledge in China, Late 19thÏEarly 20th Century", "City": "Shanghai", "State": null, "Country": "China", "addrtype": "locality", "addrlocat": "APPROXIMATE" }, "geometry": { "type": "Point", "coordinates": [ 121.473701, 31.230416 ] } },
{ "type": "Feature", "properties": { "Site Name": "British Library", "University": "University of California, Berkeley", "Full Name": "Michelle King", "Award Year": "2004", "Dissertati": "Infanticide as an Object of Knowledge in China, Late 19thÏEarly 20th Century", "City": "London", "State": null, "Country": "United Kingdom", "addrtype": "locality", "addrlocat": "APPROXIMATE" }, "geometry": { "type": "Point", "coordinates": [ -0.1277583, 51.507350899999985 ] } },
{ "type": "Feature", "properties": { "Site Name": "National Library of China", "University": "University of California, Berkeley", "Full Name": "Michelle King", "Award Year": "2004", "Dissertati": "Infanticide as an Object of Knowledge in China, Late 19th-Early 20th Century", "City": "Beijing", "State": null, "Country": "China", "addrtype": "locality", "addrlocat": "APPROXIMATE" }, "geometry": { "type": "Point", "coordinates": [ 116.407395, 39.904211 ] } },
{ "type": "Feature", "properties": { "Site Name": "Peking University Library", "University": "University of California, Berkeley", "Full Name": "Michelle King", "Award Year": "2004", "Dissertati": "Infanticide as an Object of Knowledge in China, Late 19thÏEarly 20th Century", "City": "Beijing", "State": null, "Country": "China", "addrtype": "locality", "addrlocat": "APPROXIMATE" }, "geometry": { "type": "Point", "coordinates": [ 116.407395, 39.904211 ] } },
{ "type": "Feature", "properties": { "Site Name": "Center for Creative Photography, University of Arizona", "University": "University of Chicago", "Full Name": "Sarah Miller", "Award Year": "2004", "Dissertati": "Inventing 'Documentary' in American Photography, 1930-1945", "City": "Tucson", "State": "AZ", "Country": "USA", "addrtype": "locality", "addrlocat": "APPROXIMATE" }, "geometry": { "type": "Point", "coordinates": [ -110.926479, 32.2217429 ] } },
{ "type": "Feature", "properties": { "Site Name": "Library of Congress", "University": "University of Chicago", "Full Name": "Sarah Miller", "Award Year": "2004", "Dissertati": "Inventing 'Documentary' in American Photography, 1930-1945", "City": "Washington", "State": "DC", "Country": "USA", "addrtype": "locality", "addrlocat": "APPROXIMATE" }, "geometry": { "type": "Point", "coordinates": [ -77.036870699999966, 38.9071923 ] } },
{ "type": "Feature", "properties": { "Site Name": "Archives Departmentales du Nord", "University": "University of Texas at Austin", "Full Name": "Anna Taylor", "Award Year": "2004", "Dissertati": "Carolingian Verse Saints' Lives: Education, Patronage and Monastic Memory", "City": "Lille", "State": null, "Country": "France", "addrtype": "locality", "addrlocat": "APPROXIMATE" }, "geometry": { "type": "Point", "coordinates": [ 3.057256, 50.62925 ] } },
{ "type": "Feature", "properties": { "Site Name": "Bibliothèque Municipale de Boulogne-sur-mer", "University": "University of Texas at Austin", "Full Name": "Anna Taylor", "Award Year": "2004", "Dissertati": "Carolingian Verse Saints' Lives: Education, Patronage and Monastic Memory", "City": "Boulogne-sur-mer", "State": null, "Country": "France", "addrtype": "locality", "addrlocat": "APPROXIMATE" }, "geometry": { "type": "Point", "coordinates": [ 1.613334, 50.725231 ] } },
{ "type": "Feature", "properties": { "Site Name": "Bibliotheque Nationale de France", "University": "University of Texas at Austin", "Full Name": "Anna Taylor", "Award Year": "2004", "Dissertati": "Carolingian Verse Saints' Lives: Education, Patronage and Monastic Memory", "City": "Paris", "State": null, "Country": "France", "addrtype": "locality", "addrlocat": "APPROXIMATE" }, "geometry": { "type": "Point", "coordinates": [ 2.3522219, 48.856614 ] } },
{ "type": "Feature", "properties": { "Site Name": "Bodleian Library, Oxford University", "University": "University of Texas at Austin", "Full Name": "Anna Taylor", "Award Year": "2004", "Dissertati": "Carolingian Verse Saints' Lives: Education, Patronage and Monastic Memory", "City": "Oxford", "State": null, "Country": "United Kingdom", "addrtype": "locality", "addrlocat": "APPROXIMATE" }, "geometry": { "type": "Point", "coordinates": [ -1.2577263, 51.752020899999984 ] } },
{ "type": "Feature", "properties": { "Site Name": "Institut de recherche et d'histoire des textes (IRHT)", "University": "University of Texas at Austin", "Full Name": "Anna Taylor", "Award Year": "2004", "Dissertati": "Carolingian Verse Saints' Lives: Education, Patronage and Monastic Memory", "City": "Paris", "State": null, "Country": "France", "addrtype": "locality", "addrlocat": "APPROXIMATE" }, "geometry": { "type": "Point", "coordinates": [ 2.3522219, 48.856614 ] } },
{ "type": "Feature", "properties": { "Site Name": "Building Archives of the City of Athens", "University": "Columbia University", "Full Name": "Ioanna Theocharopoulou", "Award Year": "2004", "Dissertati": "Modern Architecture and Modern Life: Informal Urbanization in Postwar Athens (1949-1974)", "City": "Athens", "State": null, "Country": "Greece", "addrtype": "locality", "addrlocat": "APPROXIMATE" }, "geometry": { "type": "Point", "coordinates": [ 23.7293599, 37.983917 ] } },
{ "type": "Feature", "properties": { "Site Name": "C.A. Doxiadis Archives", "University": "Columbia University", "Full Name": "Ioanna Theocharopoulou", "Award Year": "2004", "Dissertati": "Modern Architecture and Modern Life: Informal Urbanization in Postwar Athens (1949-1974)", "City": "Athens", "State": null, "Country": "Greece", "addrtype": "locality", "addrlocat": "APPROXIMATE" }, "geometry": { "type": "Point", "coordinates": [ 23.7293599, 37.983917 ] } },
{ "type": "Feature", "properties": { "Site Name": "Geographical Services of the Greek Army", "University": "Columbia University", "Full Name": "Ioanna Theocharopoulou", "Award Year": "2004", "Dissertati": "Modern Architecture and Modern Life: Informal Urbanization in Postwar Athens (1949-1974)", "City": "Athens", "State": null, "Country": "Greece", "addrtype": "locality", "addrlocat": "APPROXIMATE" }, "geometry": { "type": "Point", "coordinates": [ 23.7293599, 37.983917 ] } },
{ "type": "Feature", "properties": { "Site Name": "Ministry of Public Works, Athens", "University": "Columbia University", "Full Name": "Ioanna Theocharopoulou", "Award Year": "2004", "Dissertati": "Modern Architecture and Modern Life: Informal Urbanization in Postwar Athens (1949-1974)", "City": "Athens", "State": null, "Country": "Greece", "addrtype": "locality", "addrlocat": "APPROXIMATE" }, "geometry": { "type": "Point", "coordinates": [ 23.7293599, 37.983917 ] } },
{ "type": "Feature", "properties": { "Site Name": "National Film Archives of Greece", "University": "Columbia University", "Full Name": "Ioanna Theocharopoulou", "Award Year": "2004", "Dissertati": "Modern Architecture and Modern Life: Informal Urbanization in Postwar Athens (1949-1974)", "City": "Athens", "State": null, "Country": "Greece", "addrtype": "locality", "addrlocat": "APPROXIMATE" }, "geometry": { "type": "Point", "coordinates": [ 23.7293599, 37.983917 ] } },
{ "type": "Feature", "properties": { "Site Name": "National Library of Greece", "University": "Columbia University", "Full Name": "Ioanna Theocharopoulou", "Award Year": "2004", "Dissertati": "Modern Architecture and Modern Life: Informal Urbanization in Postwar Athens (1949-1974)", "City": "Athens", "State": null, "Country": "Greece", "addrtype": "locality", "addrlocat": "APPROXIMATE" }, "geometry": { "type": "Point", "coordinates": [ 23.7293599, 37.983917 ] } },
{ "type": "Feature", "properties": { "Site Name": "National Literary and Historical Archive [ELIA]", "University": "Columbia University", "Full Name": "Ioanna Theocharopoulou", "Award Year": "2004", "Dissertati": "Modern Architecture and Modern Life: Informal Urbanization in Postwar Athens (1949-1974)", "City": "Athens", "State": null, "Country": "Greece", "addrtype": "locality", "addrlocat": "APPROXIMATE" }, "geometry": { "type": "Point", "coordinates": [ 23.7293599, 37.983917 ] } },
{ "type": "Feature", "properties": { "Site Name": "National School of Architecture Library", "University": "Columbia University", "Full Name": "Ioanna Theocharopoulou", "Award Year": "2004", "Dissertati": "Modern Architecture and Modern Life: Informal Urbanization in Postwar Athens (1949-1974)", "City": "Athens", "State": null, "Country": "Greece", "addrtype": "locality", "addrlocat": "APPROXIMATE" }, "geometry": { "type": "Point", "coordinates": [ 23.7293599, 37.983917 ] } },
{ "type": "Feature", "properties": { "Site Name": "Technical Chamber of Engineers Library", "University": "Columbia University", "Full Name": "Ioanna Theocharopoulou", "Award Year": "2004", "Dissertati": "Modern Architecture and Modern Life: Informal Urbanization in Postwar Athens (1949-1974)", "City": "Athens", "State": null, "Country": "Greece", "addrtype": "locality", "addrlocat": "APPROXIMATE" }, "geometry": { "type": "Point", "coordinates": [ 23.7293599, 37.983917 ] } },
{ "type": "Feature", "properties": { "Site Name": "Glinka Museum, Moscow", "University": "University of North Carolina at Chapel Hill", "Full Name": "Kevin Bartig", "Award Year": "2005", "Dissertati": "Composing for the Red Screen: Sergei Prokofiev's Film Scores", "City": "Moscow", "State": null, "Country": "Russia", "addrtype": "intersection", "addrlocat": "APPROXIMATE" }, "geometry": { "type": "Point", "coordinates": [ -78.939968199999981, 35.968148499999984 ] } },
{ "type": "Feature", "properties": { "Site Name": "State Archive of Literature and Art (RGALI)", "University": "University of North Carolina at Chapel Hill", "Full Name": "Kevin Bartig", "Award Year": "2005", "Dissertati": "Composing for the Red Screen: Sergei Prokofiev's Film Scores", "City": "Moscow", "State": null, "Country": "Russia", "addrtype": "intersection", "addrlocat": "APPROXIMATE" }, "geometry": { "type": "Point", "coordinates": [ -78.939968199999981, 35.968148499999984 ] } },
{ "type": "Feature", "properties": { "Site Name": "British National Archives, Public Record Office", "University": "Columbia University", "Full Name": "Ellen Boucher", "Award Year": "2005", "Dissertati": "An Imperial Investment: British Child Emigration to Australia and Southern Rhodesia, 1900-1967", "City": "London", "State": null, "Country": "United Kingdom", "addrtype": "locality", "addrlocat": "APPROXIMATE" }, "geometry": { "type": "Point", "coordinates": [ -0.1277583, 51.507350899999985 ] } },
{ "type": "Feature", "properties": { "Site Name": "Cambridge University Library", "University": "Columbia University", "Full Name": "Ellen Boucher", "Award Year": "2005", "Dissertati": "An Imperial Investment: British Child Emigration to Australia and Southern Rhodesia, 1900-1967", "City": "Cambridge", "State": null, "Country": "United Kingdom", "addrtype": "locality", "addrlocat": "APPROXIMATE" }, "geometry": { "type": "Point", "coordinates": [ 0.121817, 52.205337 ] } },
{ "type": "Feature", "properties": { "Site Name": "Parliamentary Archives of the United Kingdom", "University": "Columbia University", "Full Name": "Ellen Boucher", "Award Year": "2005", "Dissertati": "An Imperial Investment: British Child Emigration to Australia and Southern Rhodesia, 1900-1967", "City": "London", "State": null, "Country": "United Kingdom", "addrtype": "locality", "addrlocat": "APPROXIMATE" }, "geometry": { "type": "Point", "coordinates": [ -0.1277583, 51.507350899999985 ] } },
{ "type": "Feature", "properties": { "Site Name": "Rhodes House Library, University of Oxford", "University": "Columbia University", "Full Name": "Ellen Boucher", "Award Year": "2005", "Dissertati": "An Imperial Investment: British Child Emigration to Australia and Southern Rhodesia, 1900-1967", "City": "Oxford", "State": null, "Country": "United Kingdom", "addrtype": "locality", "addrlocat": "APPROXIMATE" }, "geometry": { "type": "Point", "coordinates": [ -1.2577263, 51.752020899999984 ] } },
{ "type": "Feature", "properties": { "Site Name": "State Library of New South Wales", "University": "Columbia University", "Full Name": "Ellen Boucher", "Award Year": "2005", "Dissertati": "An Imperial Investment: British Child Emigration to Australia and Southern Rhodesia, 1900-1967", "City": "Sydney", "State": null, "Country": "Australia", "addrtype": "colloquial_area", "addrlocat": "APPROXIMATE" }, "geometry": { "type": "Point", "coordinates": [ 151.206990199999979, -33.867486899999989 ] } },
{ "type": "Feature", "properties": { "Site Name": "University of Liverpool Special Collections and Archives", "University": "Columbia University", "Full Name": "Ellen Boucher", "Award Year": "2005", "Dissertati": "An Imperial Investment: British Child Emigration to Australia and Southern Rhodesia, 1900-1967", "City": "Liverpool", "State": null, "Country": "United Kingdom", "addrtype": "locality", "addrlocat": "APPROXIMATE" }, "geometry": { "type": "Point", "coordinates": [ -2.9915726, 53.408371399999986 ] } },
{ "type": "Feature", "properties": { "Site Name": "Archivo General de Simancas, Valladolid", "University": "Georgetown University", "Full Name": "Vanesa Casanova-Fernandez", "Award Year": "2005", "Dissertati": "Of Moors and Men: The Construction of Masculinities on the Spanish-Moroccan Frontier, Ceuta 1640-1799", "City": "Valladolid", "State": null, "Country": "Spain", "addrtype": "locality", "addrlocat": "APPROXIMATE" }, "geometry": { "type": "Point", "coordinates": [ -4.7245321, 41.652251 ] } },
{ "type": "Feature", "properties": { "Site Name": "Archivo  Histórico Nacional, Madrid", "University": "Georgetown University", "Full Name": "Vanesa Casanova-Fernandez", "Award Year": "2005", "Dissertati": "Of Moors and Men: The Construction of Masculinities on the Spanish-Moroccan Frontier, Ceuta 1640-1799", "City": "Madrid", "State": null, "Country": "Spain", "addrtype": "locality", "addrlocat": "APPROXIMATE" }, "geometry": { "type": "Point", "coordinates": [ -3.7037902, 40.4167754 ] } },
{ "type": "Feature", "properties": { "Site Name": "Biblioteca Nacional, Madrid", "University": "Georgetown University", "Full Name": "Vanesa Casanova-Fernandez", "Award Year": "2005", "Dissertati": "Of Moors and Men: The Construction of Masculinities on the Spanish-Moroccan Frontier, Ceuta 1640-1799", "City": "Madrid", "State": null, "Country": "Spain", "addrtype": "locality", "addrlocat": "APPROXIMATE" }, "geometry": { "type": "Point", "coordinates": [ -3.7037902, 40.4167754 ] } },
{ "type": "Feature", "properties": { "Site Name": "Ceuta local archives", "University": "Georgetown University", "Full Name": "Vanesa Casanova-Fernandez", "Award Year": "2005", "Dissertati": "Of Moors and Men: The Construction of Masculinities on the Spanish-Moroccan Frontier, Ceuta 1640-1799", "City": "Ceuta", "State": null, "Country": "Spain", "addrtype": "locality", "addrlocat": "APPROXIMATE" }, "geometry": { "type": "Point", "coordinates": [ -5.3213455, 35.8893874 ] } },
{ "type": "Feature", "properties": { "Site Name": "Library of Congress", "University": "Georgetown University", "Full Name": "Vanesa Casanova-Fernandez", "Award Year": "2005", "Dissertati": "Of Moors and Men: The Construction of Masculinities on the Spanish-Moroccan Frontier, Ceuta 1640-1799", "City": "Washington", "State": "DC", "Country": "USA", "addrtype": "airport", "addrlocat": "APPROXIMATE" }, "geometry": { "type": "Point", "coordinates": [ -77.0777017, 38.9105582 ] } },
{ "type": "Feature", "properties": { "Site Name": "Kunstbibliothek zu Berlin", "University": "Massachusetts Institute of Technology", "Full Name": "Zeynep Celik bei Opitz", "Award Year": "2005", "Dissertati": "Kinaesthetic Impulses: Space, Performance, and the Body in German Architecture, 1870-1918", "City": "Berlin", "State": null, "Country": "Germany", "addrtype": "locality", "addrlocat": "APPROXIMATE" }, "geometry": { "type": "Point", "coordinates": [ 13.404954, 52.520006599999988 ] } },
{ "type": "Feature", "properties": { "Site Name": "Staatsbibliothek zu Berlin", "University": "Massachusetts Institute of Technology", "Full Name": "Zeynep Celik bei Opitz", "Award Year": "2005", "Dissertati": "Kinaesthetic Impulses: Space, Performance, and the Body in German Architecture, 1870-1918", "City": "Berlin", "State": null, "Country": "Germany", "addrtype": "locality", "addrlocat": "APPROXIMATE" }, "geometry": { "type": "Point", "coordinates": [ 13.404954, 52.520006599999988 ] } },
{ "type": "Feature", "properties": { "Site Name": "Technische Universität Plansammlung", "University": "Massachusetts Institute of Technology", "Full Name": "Zeynep Celik bei Opitz", "Award Year": "2005", "Dissertati": "Kinaesthetic Impulses: Space, Performance, and the Body in German Architecture, 1870-1918", "City": "Berlin", "State": null, "Country": "Germany", "addrtype": "locality", "addrlocat": "APPROXIMATE" }, "geometry": { "type": "Point", "coordinates": [ 13.404954, 52.520006599999988 ] } },
{ "type": "Feature", "properties": { "Site Name": "Vergina tomb site, Greece", "University": "Harvard University", "Full Name": "Hallie Franks", "Award Year": "2005", "Dissertati": "Imaging Power: Royal Ideology for the Rise of Macedon", "City": "Vergina", "State": null, "Country": "Greece", "addrtype": "locality", "addrlocat": "APPROXIMATE" }, "geometry": { "type": "Point", "coordinates": [ 22.3158996, 40.487657799999987 ] } },
{ "type": "Feature", "properties": { "Site Name": "Dar al-Kutub (National Library of Egypt)", "University": "Harvard University", "Full Name": "Sinan Antoon", "Award Year": "2002", "Dissertati": "The Poetics of the Obscene: Ibn al-Hajj?j and Sukhf", "City": "Cairo", "State": null, "Country": "Egypt", "addrtype": "locality", "addrlocat": "APPROXIMATE" }, "geometry": { "type": "Point", "coordinates": [ 31.235711599999988, 30.0444196 ] } },
{ "type": "Feature", "properties": { "Site Name": "Exotic World museum", "University": "Brown University", "Full Name": "Brenda Foley", "Award Year": "2002", "Dissertati": "Image as Identity: Beauty Contestants and Exotic Dancers as 'Merchants of Morality'", "City": "Helendale", "State": "CA", "Country": "USA", "addrtype": "locality", "addrlocat": "APPROXIMATE" }, "geometry": { "type": "Point", "coordinates": [ -117.325716899999989, 34.740285299999989 ] } },
{ "type": "Feature", "properties": { "Site Name": "Harry Ransom Center", "University": "Brown University", "Full Name": "Brenda Foley", "Award Year": "2002", "Dissertati": "Image as Identity: Beauty Contestants and Exotic Dancers as 'Merchants of Morality'", "City": "Austin", "State": null, "Country": "USA", "addrtype": "route", "addrlocat": "GEOMETRIC_CENTER" }, "geometry": { "type": "Point", "coordinates": [ -97.672632299999975, 30.3472882 ] } },
{ "type": "Feature", "properties": { "Site Name": "Harvard Theatre Collection", "University": "Brown University", "Full Name": "Brenda Foley", "Award Year": "2002", "Dissertati": "Image as Identity: Beauty Contestants and Exotic Dancers as 'Merchants of Morality'", "City": "Cambridge", "State": "MA", "Country": "USA", "addrtype": "locality", "addrlocat": "APPROXIMATE" }, "geometry": { "type": "Point", "coordinates": [ -71.1097335, 42.3736158 ] } },
{ "type": "Feature", "properties": { "Site Name": "Lincoln Centre Performing Arts Library", "University": "Brown University", "Full Name": "Brenda Foley", "Award Year": "2002", "Dissertati": "Image as Identity: Beauty Contestants and Exotic Dancers as 'Merchants of Morality'", "City": "New York", "State": "NY", "Country": "USA", "addrtype": "route", "addrlocat": "GEOMETRIC_CENTER" }, "geometry": { "type": "Point", "coordinates": [ -77.624460099999979, 43.1586482 ] } },
{ "type": "Feature", "properties": { "Site Name": "Bibliotheque Nationale de France", "University": "University of Pennsylvania", "Full Name": "Christiane Gruber", "Award Year": "2002", "Dissertati": "Heavenly Journeys and the Imaginary: Depictions of Muhammad's Mi'r?j in Medieval Islamic Manuscripts (14th-17th centuries)", "City": "Paris", "State": null, "Country": "France", "addrtype": "locality", "addrlocat": "APPROXIMATE" }, "geometry": { "type": "Point", "coordinates": [ 2.3522219, 48.856614 ] } },
{ "type": "Feature", "properties": { "Site Name": "British Library", "University": "University of Pennsylvania", "Full Name": "Christiane Gruber", "Award Year": "2002", "Dissertati": "Heavenly Journeys and the Imaginary: Depictions of Muhammad's Mi'r?j in Medieval Islamic Manuscripts (14th-17th centuries)", "City": "London", "State": null, "Country": "United Kingdom", "addrtype": "locality", "addrlocat": "APPROXIMATE" }, "geometry": { "type": "Point", "coordinates": [ -0.1277583, 51.507350899999985 ] } },
{ "type": "Feature", "properties": { "Site Name": "British Museum", "University": "University of Pennsylvania", "Full Name": "Christiane Gruber", "Award Year": "2002", "Dissertati": "Heavenly Journeys and the Imaginary: Depictions of Muhammad's Mi'r?j in Medieval Islamic Manuscripts (14th-17th centuries)", "City": "London", "State": null, "Country": "United Kingdom", "addrtype": "locality", "addrlocat": "APPROXIMATE" }, "geometry": { "type": "Point", "coordinates": [ -0.1277583, 51.507350899999985 ] } },
{ "type": "Feature", "properties": { "Site Name": "Cleveland Museum of Art", "University": "University of Pennsylvania", "Full Name": "Christiane Gruber", "Award Year": "2002", "Dissertati": "Heavenly Journeys and the Imaginary: Depictions of Muhammad's Mi'r?j in Medieval Islamic Manuscripts (14th-17th centuries)", "City": "Cleveland", "State": "OH", "Country": "USA", "addrtype": "locality", "addrlocat": "APPROXIMATE" }, "geometry": { "type": "Point", "coordinates": [ -81.694360499999974, 41.49932 ] } },
{ "type": "Feature", "properties": { "Site Name": "Dar al-Kutub (National Library of Egypt)", "University": "University of Pennsylvania", "Full Name": "Christiane Gruber", "Award Year": "2002", "Dissertati": "Heavenly Journeys and the Imaginary: Depictions of Muhammad's Mi'r?j in Medieval Islamic Manuscripts (14th-17th centuries)", "City": "Cairo", "State": null, "Country": "Egypt", "addrtype": "locality", "addrlocat": "APPROXIMATE" }, "geometry": { "type": "Point", "coordinates": [ 31.235711599999988, 30.0444196 ] } },
{ "type": "Feature", "properties": { "Site Name": "Free Library of Philadelphia", "University": "University of Pennsylvania", "Full Name": "Christiane Gruber", "Award Year": "2002", "Dissertati": "Heavenly Journeys and the Imaginary: Depictions of Muhammad's Mi'r?j in Medieval Islamic Manuscripts (14th-17th centuries)", "City": "Philadelphia", "State": "PA", "Country": "USA", "addrtype": "route", "addrlocat": "GEOMETRIC_CENTER" }, "geometry": { "type": "Point", "coordinates": [ -75.178541599999974, 39.966518599999986 ] } },
{ "type": "Feature", "properties": { "Site Name": "Kahlili Collection", "University": "University of Pennsylvania", "Full Name": "Christiane Gruber", "Award Year": "2002", "Dissertati": "Heavenly Journeys and the Imaginary: Depictions of Muhammad's Mi'r?j in Medieval Islamic Manuscripts (14th-17th centuries)", "City": "London", "State": null, "Country": "United Kingdom", "addrtype": "locality", "addrlocat": "APPROXIMATE" }, "geometry": { "type": "Point", "coordinates": [ -0.1277583, 51.507350899999985 ] } },
{ "type": "Feature", "properties": { "Site Name": "Keir Collection", "University": "University of Pennsylvania", "Full Name": "Christiane Gruber", "Award Year": "2002", "Dissertati": "Heavenly Journeys and the Imaginary: Depictions of Muhammad's Mi'r?j in Medieval Islamic Manuscripts (14th-17th centuries)", "City": "London", "State": null, "Country": "United Kingdom", "addrtype": "locality", "addrlocat": "APPROXIMATE" }, "geometry": { "type": "Point", "coordinates": [ -0.1277583, 51.507350899999985 ] } },
{ "type": "Feature", "properties": { "Site Name": "Louvre Museum", "University": "University of Pennsylvania", "Full Name": "Christiane Gruber", "Award Year": "2002", "Dissertati": "Heavenly Journeys and the Imaginary: Depictions of Muhammad's Mi'r?j in Medieval Islamic Manuscripts (14th-17th centuries)", "City": "Paris", "State": null, "Country": "France", "addrtype": "locality", "addrlocat": "APPROXIMATE" }, "geometry": { "type": "Point", "coordinates": [ 2.3522219, 48.856614 ] } },
{ "type": "Feature", "properties": { "Site Name": "Museum of Islamic Art", "University": "University of Pennsylvania", "Full Name": "Christiane Gruber", "Award Year": "2002", "Dissertati": "Heavenly Journeys and the Imaginary: Depictions of Muhammad's Mi'r?j in Medieval Islamic Manuscripts (14th-17th centuries)", "City": "Cairo", "State": null, "Country": "Egypt", "addrtype": "locality", "addrlocat": "APPROXIMATE" }, "geometry": { "type": "Point", "coordinates": [ 31.235711599999988, 30.0444196 ] } },
{ "type": "Feature", "properties": { "Site Name": "Bibliotheque Nationale de France", "University": "CUNY Graduate Center", "Full Name": "Angela Herren", "Award Year": "2002", "Dissertati": "Portraying the Aztec Past: 16th-C. Pictorial Accounts of Origin", "City": "Paris", "State": null, "Country": "France", "addrtype": "locality", "addrlocat": "APPROXIMATE" }, "geometry": { "type": "Point", "coordinates": [ 2.3522219, 48.856614 ] } },
{ "type": "Feature", "properties": { "Site Name": "Instituto de Investigaciónes Historicas, UNAM", "University": "CUNY Graduate Center", "Full Name": "Angela Herren", "Award Year": "2002", "Dissertati": "Portraying the Aztec Past: 16th-C. Pictorial Accounts of Origin", "City": "Mexico City", "State": null, "Country": "Mexico", "addrtype": "locality", "addrlocat": "APPROXIMATE" }, "geometry": { "type": "Point", "coordinates": [ -99.133208, 19.4326077 ] } },
{ "type": "Feature", "properties": { "Site Name": "Museo Nacional de Antropología e Historia", "University": "CUNY Graduate Center", "Full Name": "Angela Herren", "Award Year": "2002", "Dissertati": "Portraying the Aztec Past: 16th-C. Pictorial Accounts of Origin", "City": "Mexico City", "State": null, "Country": "Mexico", "addrtype": "locality", "addrlocat": "APPROXIMATE" }, "geometry": { "type": "Point", "coordinates": [ -99.133208, 19.4326077 ] } },
{ "type": "Feature", "properties": { "Site Name": "Boston Public Library", "University": "University of North Carolina, Chapel Hill", "Full Name": "Susan Pearson", "Award Year": "2002", "Dissertati": "'The Rights of the Defenseless': Animals, Children, and the Rhetoric of Rights in American Reform, 1865-1930", "City": "Boston", "State": "MA", "Country": "USA", "addrtype": "route", "addrlocat": "GEOMETRIC_CENTER" }, "geometry": { "type": "Point", "coordinates": [ -71.112718799999982, 42.2680763 ] } },
{ "type": "Feature", "properties": { "Site Name": "Library Company of Philadelphia", "University": "University of North Carolina, Chapel Hill", "Full Name": "Susan Pearson", "Award Year": "2002", "Dissertati": "'The Rights of the Defenseless': Animals, Children, and the Rhetoric of Rights in American Reform, 1865-1930", "City": "Philadelphia", "State": "PA", "Country": "USA", "addrtype": "route", "addrlocat": "GEOMETRIC_CENTER" }, "geometry": { "type": "Point", "coordinates": [ -75.062807099999986, 40.1012955 ] } },
{ "type": "Feature", "properties": { "Site Name": "New York Public Library", "University": "University of North Carolina, Chapel Hill", "Full Name": "Susan Pearson", "Award Year": "2002", "Dissertati": "'The Rights of the Defenseless': Animals, Children, and the Rhetoric of Rights in American Reform, 1865-1930", "City": "New York", "State": "NY", "Country": "USA", "addrtype": "route", "addrlocat": "GEOMETRIC_CENTER" }, "geometry": { "type": "Point", "coordinates": [ -73.9851911, 40.6972225 ] } },
{ "type": "Feature", "properties": { "Site Name": "Women's Christian Temperance Society library", "University": "University of North Carolina, Chapel Hill", "Full Name": "Susan Pearson", "Award Year": "2002", "Dissertati": "'The Rights of the Defenseless': Animals, Children, and the Rhetoric of Rights in American Reform, 1865-1930", "City": "Evanston", "State": "IL", "Country": "USA", "addrtype": "locality", "addrlocat": "APPROXIMATE" }, "geometry": { "type": "Point", "coordinates": [ -87.6876969, 42.045072199999986 ] } },
{ "type": "Feature", "properties": { "Site Name": "Hessisches Staatsarchiv Marburg", "University": "Harvard University", "Full Name": "Alisha Rankin", "Award Year": "2002", "Dissertati": "Women's Domestic Medicine in Sixteenth-Century Germany: The Case of Elisabeth von Rochlitz", "City": "Marburg", "State": null, "Country": "Germany", "addrtype": "locality", "addrlocat": "APPROXIMATE" }, "geometry": { "type": "Point", "coordinates": [ 8.7667933, 50.8021728 ] } },
{ "type": "Feature", "properties": { "Site Name": "Sächsisches Hauptstaatsarchiv Dresden", "University": "Harvard University", "Full Name": "Alisha Rankin", "Award Year": "2002", "Dissertati": "Women's Domestic Medicine in Sixteenth-Century Germany: The Case of Elisabeth von Rochlitz", "City": "Dresden", "State": null, "Country": "Germany", "addrtype": "locality", "addrlocat": "APPROXIMATE" }, "geometry": { "type": "Point", "coordinates": [ 13.7372621, 51.050408799999985 ] } },
{ "type": "Feature", "properties": { "Site Name": "Staats- und Universitätsbibliothek (SLUB), Dresden", "University": "Harvard University", "Full Name": "Alisha Rankin", "Award Year": "2002", "Dissertati": "Women's Domestic Medicine in Sixteenth-Century Germany: The Case of Elisabeth von Rochlitz", "City": "Dresden", "State": null, "Country": "Germany", "addrtype": "locality", "addrlocat": "APPROXIMATE" }, "geometry": { "type": "Point", "coordinates": [ 13.7372621, 51.050408799999985 ] } },
{ "type": "Feature", "properties": { "Site Name": "Universitätsbibliothek Heidelberg (Heidelberg University Library)", "University": "Harvard University", "Full Name": "Alisha Rankin", "Award Year": "2002", "Dissertati": "Women's Domestic Medicine in Sixteenth-Century Germany: The Case of Elisabeth von Rochlitz", "City": "Heidelberg", "State": null, "Country": "Germany", "addrtype": "locality", "addrlocat": "APPROXIMATE" }, "geometry": { "type": "Point", "coordinates": [ 8.6724335, 49.398752399999985 ] } },
{ "type": "Feature", "properties": { "Site Name": "Ad Libitum collection", "University": "New York University", "Full Name": "Maria Rose", "Award Year": "2002", "Dissertati": "L'Art de Bien Chanter and the Early French Piano Style: 1780-1820", "City": "Besancon", "State": null, "Country": "France", "addrtype": "locality", "addrlocat": "APPROXIMATE" }, "geometry": { "type": "Point", "coordinates": [ 6.0240539, 47.237829 ] } },
{ "type": "Feature", "properties": { "Site Name": "Bibliothèque Nationale de France, Mitterand location", "University": "New York University", "Full Name": "Maria Rose", "Award Year": "2002", "Dissertati": "L'Art de Bien Chanter and the Early French Piano Style: 1780-1820", "City": "Paris", "State": null, "Country": "France", "addrtype": "locality", "addrlocat": "APPROXIMATE" }, "geometry": { "type": "Point", "coordinates": [ 2.3522219, 48.856614 ] } },
{ "type": "Feature", "properties": { "Site Name": "Bibliothèque Nationale de France, Music Library", "University": "New York University", "Full Name": "Maria Rose", "Award Year": "2002", "Dissertati": "L'Art de Bien Chanter and the Early French Piano Style: 1780-1820", "City": "Paris", "State": null, "Country": "France", "addrtype": "locality", "addrlocat": "APPROXIMATE" }, "geometry": { "type": "Point", "coordinates": [ 2.3522219, 48.856614 ] } },
{ "type": "Feature", "properties": { "Site Name": "Bibliothèque Nationale de France, Rue Richelieu location", "University": "New York University", "Full Name": "Maria Rose", "Award Year": "2002", "Dissertati": "L'Art de Bien Chanter and the Early French Piano Style: 1780-1820", "City": "Paris", "State": null, "Country": "France", "addrtype": "locality", "addrlocat": "APPROXIMATE" }, "geometry": { "type": "Point", "coordinates": [ 2.3522219, 48.856614 ] } },
{ "type": "Feature", "properties": { "Site Name": "British Library", "University": "New York University", "Full Name": "Maria Rose", "Award Year": "2002", "Dissertati": "L'Art de Bien Chanter and the Early French Piano Style: 1780-1820", "City": "London", "State": null, "Country": "United Kingdom", "addrtype": "locality", "addrlocat": "APPROXIMATE" }, "geometry": { "type": "Point", "coordinates": [ -0.1277583, 51.507350899999985 ] } },
{ "type": "Feature", "properties": { "Site Name": "Centre d'accueil et de recherche des Archives Nationales (CARAN)", "University": "New York University", "Full Name": "Maria Rose", "Award Year": "2002", "Dissertati": "L'Art de Bien Chanter and the Early French Piano Style: 1780-1820", "City": "Paris", "State": null, "Country": "France", "addrtype": "locality", "addrlocat": "APPROXIMATE" }, "geometry": { "type": "Point", "coordinates": [ 2.3522219, 48.856614 ] } },
{ "type": "Feature", "properties": { "Site Name": "Centre de Musique de Baroque", "University": "New York University", "Full Name": "Maria Rose", "Award Year": "2002", "Dissertati": "L'Art de Bien Chanter and the Early French Piano Style: 1780-1820", "City": "Versailles", "State": null, "Country": "France", "addrtype": "locality", "addrlocat": "APPROXIMATE" }, "geometry": { "type": "Point", "coordinates": [ 2.130122, 48.801408 ] } },
{ "type": "Feature", "properties": { "Site Name": "Finchcocks Musical Museum", "University": "New York University", "Full Name": "Maria Rose", "Award Year": "2002", "Dissertati": "L'Art de Bien Chanter and the Early French Piano Style: 1780-1820", "City": "Goudhurst", "State": "Kent", "Country": "United Kingdom", "addrtype": "locality", "addrlocat": "APPROXIMATE" }, "geometry": { "type": "Point", "coordinates": [ 0.457947, 51.11306 ] } },
{ "type": "Feature", "properties": { "Site Name": "Institut de France", "University": "New York University", "Full Name": "Maria Rose", "Award Year": "2002", "Dissertati": "L'Art de Bien Chanter and the Early French Piano Style: 1780-1820", "City": "Paris", "State": null, "Country": "France", "addrtype": "locality", "addrlocat": "APPROXIMATE" }, "geometry": { "type": "Point", "coordinates": [ 2.3522219, 48.856614 ] } },
{ "type": "Feature", "properties": { "Site Name": "Instrumentenmuseum", "University": "New York University", "Full Name": "Maria Rose", "Award Year": "2002", "Dissertati": "L'Art de Bien Chanter and the Early French Piano Style: 1780-1820", "City": "Brussels", "State": null, "Country": "Belgium", "addrtype": "locality", "addrlocat": "APPROXIMATE" }, "geometry": { "type": "Point", "coordinates": [ 4.3517103, 50.850339599999984 ] } },
{ "type": "Feature", "properties": { "Site Name": "Koninklijke Bibliotheek", "University": "New York University", "Full Name": "Maria Rose", "Award Year": "2002", "Dissertati": "L'Art de Bien Chanter and the Early French Piano Style: 1780-1820", "City": "Brussels", "State": null, "Country": "Belgium", "addrtype": "locality", "addrlocat": "APPROXIMATE" }, "geometry": { "type": "Point", "coordinates": [ 4.3517103, 50.850339599999984 ] } },
{ "type": "Feature", "properties": { "Site Name": "Musée de la Musique", "University": "New York University", "Full Name": "Maria Rose", "Award Year": "2002", "Dissertati": "L'Art de Bien Chanter and the Early French Piano Style: 1780-1820", "City": "Paris", "State": null, "Country": "France", "addrtype": "locality", "addrlocat": "APPROXIMATE" }, "geometry": { "type": "Point", "coordinates": [ 2.3522219, 48.856614 ] } },
{ "type": "Feature", "properties": { "Site Name": "New York Public Library", "University": "New York University", "Full Name": "Maria Rose", "Award Year": "2002", "Dissertati": "L'Art de Bien Chanter and the Early French Piano Style: 1780-1820", "City": "New York", "State": "NY", "Country": "USA", "addrtype": "park", "addrlocat": "APPROXIMATE" }, "geometry": { "type": "Point", "coordinates": [ -73.8076702, 40.760956899999989 ] } },
{ "type": "Feature", "properties": { "Site Name": "Cini Foundation Libraries", "University": "University of Michigan", "Full Name": "Natalie Rothman", "Award Year": "2002", "Dissertati": "Occidentalizing Venice: 'Cultural heritage' and the production of History at the Venice and the Orient Institute", "City": "Venice", "State": null, "Country": "Italy", "addrtype": "locality", "addrlocat": "APPROXIMATE" }, "geometry": { "type": "Point", "coordinates": [ 12.3155151, 45.4408474 ] } },
{ "type": "Feature", "properties": { "Site Name": "Correr Museum Library", "University": "University of Michigan", "Full Name": "Natalie Rothman", "Award Year": "2002", "Dissertati": "Occidentalizing Venice: 'Cultural heritage' and the production of History at the Venice and the Orient Institute", "City": "Venice", "State": null, "Country": "Italy", "addrtype": "locality", "addrlocat": "APPROXIMATE" }, "geometry": { "type": "Point", "coordinates": [ 12.3155151, 45.4408474 ] } },
{ "type": "Feature", "properties": { "Site Name": "Marciana Library", "University": "University of Michigan", "Full Name": "Natalie Rothman", "Award Year": "2002", "Dissertati": "Occidentalizing Venice: 'Cultural heritage' and the production of History at the Venice and the Orient Institute", "City": "Venice", "State": null, "Country": "Italy", "addrtype": "locality", "addrlocat": "APPROXIMATE" }, "geometry": { "type": "Point", "coordinates": [ 12.3155151, 45.4408474 ] } },
{ "type": "Feature", "properties": { "Site Name": "Venetian State Archive", "University": "University of Michigan", "Full Name": "Natalie Rothman", "Award Year": "2002", "Dissertati": "Occidentalizing Venice: 'Cultural heritage' and the production of History at the Venice and the Orient Institute", "City": "Venice", "State": null, "Country": "Italy", "addrtype": "locality", "addrlocat": "APPROXIMATE" }, "geometry": { "type": "Point", "coordinates": [ 12.3155151, 45.4408474 ] } },
{ "type": "Feature", "properties": { "Site Name": "National Archives of Jamaica", "University": "University of Texas at Austin", "Full Name": "Paula Saunders", "Award Year": "2002", "Dissertati": "Free and Enslaved African Communities in Colonial Jamaica, 1780-1834", "City": "Spanish Town", "State": null, "Country": "Jamaica", "addrtype": "locality", "addrlocat": "APPROXIMATE" }, "geometry": { "type": "Point", "coordinates": [ -97.743060799999967, 30.267153 ] } },
{ "type": "Feature", "properties": { "Site Name": "National Library of Jamaica", "University": "University of Texas at Austin", "Full Name": "Paula Saunders", "Award Year": "2002", "Dissertati": "Free and Enslaved African Communities in Colonial Jamaica, 1780-1834", "City": "Kingston", "State": null, "Country": "Jamaica", "addrtype": "locality", "addrlocat": "APPROXIMATE" }, "geometry": { "type": "Point", "coordinates": [ -76.809904099999969, 18.0178743 ] } },
{ "type": "Feature", "properties": { "Site Name": "West India Reference Library", "University": "University of Texas at Austin", "Full Name": "Paula Saunders", "Award Year": "2002", "Dissertati": "Free and Enslaved African Communities in Colonial Jamaica, 1780-1834", "City": "Kingston", "State": null, "Country": "Jamaica", "addrtype": "locality", "addrlocat": "APPROXIMATE" }, "geometry": { "type": "Point", "coordinates": [ -76.809904099999969, 18.0178743 ] } },
{ "type": "Feature", "properties": { "Site Name": "British National Archives, Public Record Office", "University": "Columbia University", "Full Name": "Sarah Abramowicz", "Award Year": "2003", "Dissertati": "English Child Custody Law and the Victorian Novel", "City": "London", "State": null, "Country": "United Kingdom", "addrtype": "locality", "addrlocat": "APPROXIMATE" }, "geometry": { "type": "Point", "coordinates": [ -0.1277583, 51.507350899999985 ] } },
{ "type": "Feature", "properties": { "Site Name": "Party Archive, Syktyvkar", "University": "University of Chicago", "Full Name": "Alan Barenberg", "Award Year": "2003", "Dissertati": "From Prisoners to Miners: A Social History of Vorkuta, 1943-1964", "City": "Syktyvkar", "State": null, "Country": "Russia", "addrtype": "locality", "addrlocat": "APPROXIMATE" }, "geometry": { "type": "Point", "coordinates": [ 50.833902899999984, 61.647850799999986 ] } },
{ "type": "Feature", "properties": { "Site Name": "Vorkuta Justice Ministry Archive", "University": "University of Chicago", "Full Name": "Alan Barenberg", "Award Year": "2003", "Dissertati": "From Prisoners to Miners: A Social History of Vorkuta, 1943-1964", "City": "Vorkuta", "State": null, "Country": "Russia", "addrtype": "locality", "addrlocat": "APPROXIMATE" }, "geometry": { "type": "Point", "coordinates": [ 64.060217499999979, 67.496896699999965 ] } },
{ "type": "Feature", "properties": { "Site Name": "Vorkuta Municipal Archive", "University": "University of Chicago", "Full Name": "Alan Barenberg", "Award Year": "2003", "Dissertati": "From Prisoners to Miners: A Social History of Vorkuta, 1943-1964", "City": "Vorkuta", "State": null, "Country": "Russia", "addrtype": "locality", "addrlocat": "APPROXIMATE" }, "geometry": { "type": "Point", "coordinates": [ 64.060217499999979, 67.496896699999965 ] } },
{ "type": "Feature", "properties": { "Site Name": "Vorkuta Museum", "University": "University of Chicago", "Full Name": "Alan Barenberg", "Award Year": "2003", "Dissertati": "From Prisoners to Miners: A Social History of Vorkuta, 1943-1964", "City": "Vorkuta", "State": null, "Country": "Russia", "addrtype": "locality", "addrlocat": "APPROXIMATE" }, "geometry": { "type": "Point", "coordinates": [ 64.060217499999979, 67.496896699999965 ] } },
{ "type": "Feature", "properties": { "Site Name": "Bradford County Historical Society", "University": "Cornell University", "Full Name": "Kathryn Clippinger", "Award Year": "2003", "Dissertati": "Comparative Family Ethnicity on the New York Borderlands, 1680-1800", "City": "Towanda", "State": "PA", "Country": "USA", "addrtype": "locality", "addrlocat": "APPROXIMATE" }, "geometry": { "type": "Point", "coordinates": [ -76.4427188, 41.767575 ] } },
{ "type": "Feature", "properties": { "Site Name": "Montgomery County Department of History and Archives", "University": "Cornell University", "Full Name": "Kathryn Clippinger", "Award Year": "2003", "Dissertati": "Comparative Family Ethnicity on the New York Borderlands, 1680-1800", "City": "Fonda", "State": "NY", "Country": "USA", "addrtype": "locality", "addrlocat": "APPROXIMATE" }, "geometry": { "type": "Point", "coordinates": [ -74.376524099999983, 42.954517899999985 ] } },
{ "type": "Feature", "properties": { "Site Name": "Niagara-on-the-Lake Historical Society", "University": "Cornell University", "Full Name": "Kathryn Clippinger", "Award Year": "2003", "Dissertati": "Comparative Family Ethnicity on the New York Borderlands, 1680-1800", "City": "Niagara-on-the-Lake", "State": null, "Country": "Canada", "addrtype": "locality", "addrlocat": "APPROXIMATE" }, "geometry": { "type": "Point", "coordinates": [ -79.077261599999986, 43.254998799999989 ] } },
{ "type": "Feature", "properties": { "Site Name": "American Jewish Historical Society", "University": "Yale University Graduate School of Arts and Scienc", "Full Name": "Rebecca Davis", "Award Year": "2003", "Dissertati": "For Better or for Worse: Marriage Counseling, Gender, and Sexual Politics in the United States, 1945-1980", "City": "New York", "State": "NY", "Country": "USA", "addrtype": "locality", "addrlocat": "APPROXIMATE" }, "geometry": { "type": "Point", "coordinates": [ -74.005941299999989, 40.7127837 ] } },
{ "type": "Feature", "properties": { "Site Name": "Archives of the United Church of Christ", "University": "Yale University Graduate School of Arts and Scienc", "Full Name": "Rebecca Davis", "Award Year": "2003", "Dissertati": "For Better or for Worse: Marriage Counseling, Gender, and Sexual Politics in the United States, 1945-1980", "City": "Cleveland", "State": "OH", "Country": "USA", "addrtype": "locality", "addrlocat": "APPROXIMATE" }, "geometry": { "type": "Point", "coordinates": [ -81.694360499999974, 41.49932 ] } },
{ "type": "Feature", "properties": { "Site Name": "Countway Library of Medicine, Harvard School of Medicine", "University": "Yale University Graduate School of Arts and Scienc", "Full Name": "Rebecca Davis", "Award Year": "2003", "Dissertati": "For Better or for Worse: Marriage Counseling, Gender, and Sexual Politics in the United States, 1945-1980", "City": "Boston", "State": "MA", "Country": "USA", "addrtype": "locality", "addrlocat": "APPROXIMATE" }, "geometry": { "type": "Point", "coordinates": [ -71.058880099999968, 42.3600825 ] } },
{ "type": "Feature", "properties": { "Site Name": "First Community Church", "University": "Yale University Graduate School of Arts and Scienc", "Full Name": "Rebecca Davis", "Award Year": "2003", "Dissertati": "For Better or for Worse: Marriage Counseling, Gender, and Sexual Politics in the United States, 1945-1980", "City": "Columbus", "State": "OH", "Country": "USA", "addrtype": "locality", "addrlocat": "APPROXIMATE" }, "geometry": { "type": "Point", "coordinates": [ -82.9987942, 39.9611755 ] } },
{ "type": "Feature", "properties": { "Site Name": "General Theological Seminary Archives", "University": "Yale University Graduate School of Arts and Scienc", "Full Name": "Rebecca Davis", "Award Year": "2003", "Dissertati": "For Better or for Worse: Marriage Counseling, Gender, and Sexual Politics in the United States, 1945-1980", "City": "New York", "State": "NY", "Country": "USA", "addrtype": "locality", "addrlocat": "APPROXIMATE" }, "geometry": { "type": "Point", "coordinates": [ -74.005941299999989, 40.7127837 ] } },
{ "type": "Feature", "properties": { "Site Name": "Indiana Historical Society", "University": "Yale University Graduate School of Arts and Scienc", "Full Name": "Rebecca Davis", "Award Year": "2003", "Dissertati": "For Better or for Worse: Marriage Counseling, Gender, and Sexual Politics in the United States, 1945-1980", "City": "Indianapolis", "State": "IN", "Country": "USA", "addrtype": "locality", "addrlocat": "APPROXIMATE" }, "geometry": { "type": "Point", "coordinates": [ -86.158068, 39.768403 ] } },
{ "type": "Feature", "properties": { "Site Name": "Langsdale Library, University of Baltimore", "University": "Yale University Graduate School of Arts and Scienc", "Full Name": "Rebecca Davis", "Award Year": "2003", "Dissertati": "For Better or for Worse: Marriage Counseling, Gender, and Sexual Politics in the United States, 1945-1980", "City": "Baltimore", "State": "MD", "Country": "USA", "addrtype": "locality", "addrlocat": "APPROXIMATE" }, "geometry": { "type": "Point", "coordinates": [ -76.612189299999983, 39.2903848 ] } },
{ "type": "Feature", "properties": { "Site Name": "Marabel Morgan collection", "University": "Yale University Graduate School of Arts and Scienc", "Full Name": "Rebecca Davis", "Award Year": "2003", "Dissertati": "For Better or for Worse: Marriage Counseling, Gender, and Sexual Politics in the United States, 1945-1980", "City": "Miami", "State": "FL", "Country": "USA", "addrtype": "locality", "addrlocat": "APPROXIMATE" }, "geometry": { "type": "Point", "coordinates": [ -80.191790199999986, 25.7616798 ] } },
{ "type": "Feature", "properties": { "Site Name": "Ohio State University Archives", "University": "Yale University Graduate School of Arts and Scienc", "Full Name": "Rebecca Davis", "Award Year": "2003", "Dissertati": "For Better or for Worse: Marriage Counseling, Gender, and Sexual Politics in the United States, 1945-1980", "City": "Columbus", "State": "OH", "Country": "USA", "addrtype": "locality", "addrlocat": "APPROXIMATE" }, "geometry": { "type": "Point", "coordinates": [ -82.9987942, 39.9611755 ] } },
{ "type": "Feature", "properties": { "Site Name": "Presbyterian Historical Society", "University": "Yale University Graduate School of Arts and Scienc", "Full Name": "Rebecca Davis", "Award Year": "2003", "Dissertati": "For Better or for Worse: Marriage Counseling, Gender, and Sexual Politics in the United States, 1945-1980", "City": "Philadelphia", "State": "PA", "Country": "USA", "addrtype": "locality", "addrlocat": "APPROXIMATE" }, "geometry": { "type": "Point", "coordinates": [ -75.165221499999987, 39.952583899999986 ] } },
{ "type": "Feature", "properties": { "Site Name": "Stephen Wise Free Synagogue Archives", "University": "Yale University Graduate School of Arts and Scienc", "Full Name": "Rebecca Davis", "Award Year": "2003", "Dissertati": "For Better or for Worse: Marriage Counseling, Gender, and Sexual Politics in the United States, 1945-1980", "City": "New York", "State": "NY", "Country": "USA", "addrtype": "locality", "addrlocat": "APPROXIMATE" }, "geometry": { "type": "Point", "coordinates": [ -74.005941299999989, 40.7127837 ] } },
{ "type": "Feature", "properties": { "Site Name": "University of Chicago Special Collections Research Center", "University": "Yale University Graduate School of Arts and Scienc", "Full Name": "Rebecca Davis", "Award Year": "2003", "Dissertati": "For Better or for Worse: Marriage Counseling, Gender, and Sexual Politics in the United States, 1945-1980", "City": "Chicago", "State": "IL", "Country": "USA", "addrtype": "locality", "addrlocat": "APPROXIMATE" }, "geometry": { "type": "Point", "coordinates": [ -87.629798199999968, 41.878113599999985 ] } },
{ "type": "Feature", "properties": { "Site Name": "University of Minnesota Social Welfare History Archives", "University": "Yale University Graduate School of Arts and Scienc", "Full Name": "Rebecca Davis", "Award Year": "2003", "Dissertati": "For Better or for Worse: Marriage Counseling, Gender, and Sexual Politics in the United States, 1945-1980", "City": "Minneapolis", "State": "MN", "Country": "USA", "addrtype": "locality", "addrlocat": "APPROXIMATE" }, "geometry": { "type": "Point", "coordinates": [ -93.2650108, 44.977753 ] } },
{ "type": "Feature", "properties": { "Site Name": "University of Notre Dame Archives", "University": "Yale University Graduate School of Arts and Scienc", "Full Name": "Rebecca Davis", "Award Year": "2003", "Dissertati": "For Better or for Worse: Marriage Counseling, Gender, and Sexual Politics in the United States, 1945-1980", "City": "South Bend", "State": "IN", "Country": "USA", "addrtype": "locality", "addrlocat": "APPROXIMATE" }, "geometry": { "type": "Point", "coordinates": [ -86.251989799999976, 41.6763545 ] } },
{ "type": "Feature", "properties": { "Site Name": "University of Pennsylvania Archives", "University": "Yale University Graduate School of Arts and Scienc", "Full Name": "Rebecca Davis", "Award Year": "2003", "Dissertati": "For Better or for Worse: Marriage Counseling, Gender, and Sexual Politics in the United States, 1945-1980", "City": "Philadelphia", "State": "PA", "Country": "USA", "addrtype": "locality", "addrlocat": "APPROXIMATE" }, "geometry": { "type": "Point", "coordinates": [ -75.165221499999987, 39.952583899999986 ] } },
{ "type": "Feature", "properties": { "Site Name": "Yeshiva University Library", "University": "Yale University Graduate School of Arts and Scienc", "Full Name": "Rebecca Davis", "Award Year": "2003", "Dissertati": "For Better or for Worse: Marriage Counseling, Gender, and Sexual Politics in the United States, 1945-1980", "City": "New York", "State": "NY", "Country": "USA", "addrtype": "locality", "addrlocat": "APPROXIMATE" }, "geometry": { "type": "Point", "coordinates": [ -74.005941299999989, 40.7127837 ] } },
{ "type": "Feature", "properties": { "Site Name": "Alabama State Archives", "University": "University of California, Los Angeles", "Full Name": "Lester Feder", "Award Year": "2003", "Dissertati": "Making Whiteness Sound: Country Music and the Racial Imagination in 20th Century America", "City": "Montgomery", "State": "AL", "Country": "USA", "addrtype": "route", "addrlocat": "GEOMETRIC_CENTER" }, "geometry": { "type": "Point", "coordinates": [ -118.267811399999985, 34.1684766 ] } },
{ "type": "Feature", "properties": { "Site Name": "Center for American History, University of Texas", "University": "University of California, Los Angeles", "Full Name": "Lester Feder", "Award Year": "2003", "Dissertati": "Making Whiteness Sound: Country Music and the Racial Imagination in 20th Century America", "City": "Austin", "State": "TX", "Country": "USA", "addrtype": "locality", "addrlocat": "APPROXIMATE" }, "geometry": { "type": "Point", "coordinates": [ -97.743060799999967, 30.267153 ] } },
{ "type": "Feature", "properties": { "Site Name": "Country Music Hall of Fame and Museum, Nashville", "University": "University of California, Los Angeles", "Full Name": "Lester Feder", "Award Year": "2003", "Dissertati": "Making Whiteness Sound: Country Music and the Racial Imagination in 20th Century America", "City": "Nashville", "State": "TN", "Country": "USA", "addrtype": "locality", "addrlocat": "APPROXIMATE" }, "geometry": { "type": "Point", "coordinates": [ -86.781601599999988, 36.1626638 ] } },
{ "type": "Feature", "properties": { "Site Name": "Southeastern Louisiana University Regional History Center", "University": "University of California, Los Angeles", "Full Name": "Lester Feder", "Award Year": "2003", "Dissertati": "Making Whiteness Sound: Country Music and the Racial Imagination in 20th Century America", "City": "Hammond", "State": "LA", "Country": "USA", "addrtype": "locality", "addrlocat": "APPROXIMATE" }, "geometry": { "type": "Point", "coordinates": [ -90.461199499999978, 30.504358299999989 ] } },
{ "type": "Feature", "properties": { "Site Name": "Southern Folklife Center, UNC Chapel Hill", "University": "University of California, Los Angeles", "Full Name": "Lester Feder", "Award Year": "2003", "Dissertati": "Making Whiteness Sound: Country Music and the Racial Imagination in 20th Century America", "City": "Chapel Hill", "State": "NC", "Country": "USA", "addrtype": "locality", "addrlocat": "APPROXIMATE" }, "geometry": { "type": "Point", "coordinates": [ -79.0558445, 35.9131996 ] } },
{ "type": "Feature", "properties": { "Site Name": "Tulane University Library", "University": "University of California, Los Angeles", "Full Name": "Lester Feder", "Award Year": "2003", "Dissertati": "Making Whiteness Sound: Country Music and the Racial Imagination in 20th Century America", "City": "New Orleans", "State": "LA", "Country": "USA", "addrtype": "locality", "addrlocat": "APPROXIMATE" }, "geometry": { "type": "Point", "coordinates": [ -90.071532299999987, 29.951065799999988 ] } },
{ "type": "Feature", "properties": { "Site Name": "Lowell Observatory archives", "University": "University of Texas at Austin", "Full Name": "Maria Lane", "Award Year": "2003", "Dissertati": "Geographic Representations of the Planet Mars, 1867-1907", "City": "Flagstaff", "State": "AZ", "Country": "USA", "addrtype": "locality", "addrlocat": "APPROXIMATE" }, "geometry": { "type": "Point", "coordinates": [ -111.651302, 35.1982836 ] } },
{ "type": "Feature", "properties": { "Site Name": "Imperial War Museum", "University": "Yale University", "Full Name": "Helen Lennon", "Award Year": "2003", "Dissertati": "Creating A Witness: Film as Evidence in International War Crimes Tribunals", "City": "London", "State": null, "Country": "United Kingdom", "addrtype": "locality", "addrlocat": "APPROXIMATE" }, "geometry": { "type": "Point", "coordinates": [ -0.1277583, 51.507350899999985 ] } },
{ "type": "Feature", "properties": { "Site Name": "Library of Congress", "University": "Yale University", "Full Name": "Helen Lennon", "Award Year": "2003", "Dissertati": "Creating A Witness: Film as Evidence in International War Crimes Tribunals", "City": "Washington", "State": "DC", "Country": "USA", "addrtype": "route", "addrlocat": "GEOMETRIC_CENTER" }, "geometry": { "type": "Point", "coordinates": [ -77.017482699999988, 38.905091899999988 ] } },
{ "type": "Feature", "properties": { "Site Name": "Public Information Services office, Yugoslav Tribunal", "University": "Yale University", "Full Name": "Helen Lennon", "Award Year": "2003", "Dissertati": "Creating A Witness: Film as Evidence in International War Crimes Tribunals", "City": "The Hague", "State": null, "Country": "Netherlands", "addrtype": "locality", "addrlocat": "APPROXIMATE" }, "geometry": { "type": "Point", "coordinates": [ 4.3006999, 52.070497799999984 ] } },
{ "type": "Feature", "properties": { "Site Name": "Rwandan Tribunal", "University": "Yale University", "Full Name": "Helen Lennon", "Award Year": "2003", "Dissertati": "Creating A Witness: Film as Evidence in International War Crimes Tribunals", "City": "Arusha", "State": null, "Country": "Tanzania", "addrtype": "locality", "addrlocat": "APPROXIMATE" }, "geometry": { "type": "Point", "coordinates": [ 36.6829927, -3.3869254 ] } },
{ "type": "Feature", "properties": { "Site Name": "Bibliotheque Municipale de Dijon", "University": "Johns Hopkins University", "Full Name": "Lisa Mahoney", "Award Year": "2003", "Dissertati": "Re-presenting the Past: The Histoire ancienne jusqu'e Cesar in the Context of the Crusades", "City": "Dijon", "State": null, "Country": "France", "addrtype": "locality", "addrlocat": "APPROXIMATE" }, "geometry": { "type": "Point", "coordinates": [ 5.04148, 47.322047 ] } },
{ "type": "Feature", "properties": { "Site Name": "Bibliotheque Royale de Belgique", "University": "Johns Hopkins University", "Full Name": "Lisa Mahoney", "Award Year": "2003", "Dissertati": "Re-presenting the Past: The Histoire ancienne jusqu'? C?sar in the Context of the Crusades", "City": "Brussels", "State": null, "Country": "Belgium", "addrtype": "locality", "addrlocat": "APPROXIMATE" }, "geometry": { "type": "Point", "coordinates": [ 4.3517103, 50.850339599999984 ] } },
{ "type": "Feature", "properties": { "Site Name": "City Archive of the New Orleans Public Library", "University": "New York University", "Full Name": "Jasmine Mir", "Award Year": "2003", "Dissertati": "Marketplace of Desire: Contested Space, Tourism, and Constructions of Sexual Deviance' in New Orleans, 1880-1920", "City": "New Orleans", "State": "LA", "Country": "USA", "addrtype": "locality", "addrlocat": "APPROXIMATE" }, "geometry": { "type": "Point", "coordinates": [ -90.071532299999987, 29.951065799999988 ] } },
{ "type": "Feature", "properties": { "Site Name": "Tulane University Library", "University": "New York University", "Full Name": "Jasmine Mir", "Award Year": "2003", "Dissertati": "Marketplace of Desire: Contested Space, Tourism, and Constructions of Sexual Deviance' in New Orleans, 1880-1920", "City": "New Orleans", "State": "LA", "Country": "USA", "addrtype": "locality", "addrlocat": "APPROXIMATE" }, "geometry": { "type": "Point", "coordinates": [ -90.071532299999987, 29.951065799999988 ] } },
{ "type": "Feature", "properties": { "Site Name": "Bibliotheque Centrale, Muséum national d'Histoire naturelle", "University": "University of California Los Angeles", "Full Name": "William Nelson", "Award Year": "2003", "Dissertati": "'The Weapon of Time': Constructing the Future in France, 1760-1800", "City": "Paris", "State": null, "Country": "France", "addrtype": "locality", "addrlocat": "APPROXIMATE" }, "geometry": { "type": "Point", "coordinates": [ 2.3522219, 48.856614 ] } },
{ "type": "Feature", "properties": { "Site Name": "Bibliotheque de l'Arsenal", "University": "University of California Los Angeles", "Full Name": "William Nelson", "Award Year": "2003", "Dissertati": "'The Weapon of Time': Constructing the Future in France, 1760-1800", "City": "Paris", "State": null, "Country": "France", "addrtype": "locality", "addrlocat": "APPROXIMATE" }, "geometry": { "type": "Point", "coordinates": [ 2.3522219, 48.856614 ] } },
{ "type": "Feature", "properties": { "Site Name": "Bibliotheque Historique de la Ville de Paris", "University": "University of California Los Angeles", "Full Name": "William Nelson", "Award Year": "2003", "Dissertati": "'The Weapon of Time': Constructing the Future in France, 1760-1800", "City": "Paris", "State": null, "Country": "France", "addrtype": "locality", "addrlocat": "APPROXIMATE" }, "geometry": { "type": "Point", "coordinates": [ 2.3522219, 48.856614 ] } },
{ "type": "Feature", "properties": { "Site Name": "Bibliotheque Nationale de France", "University": "University of California Los Angeles", "Full Name": "William Nelson", "Award Year": "2003", "Dissertati": "'The Weapon of Time': Constructing the Future in France, 1760-1800", "City": "Paris", "State": null, "Country": "France", "addrtype": "locality", "addrlocat": "APPROXIMATE" }, "geometry": { "type": "Point", "coordinates": [ 2.3522219, 48.856614 ] } },
{ "type": "Feature", "properties": { "Site Name": "Loeb Library", "University": "University of Chicago", "Full Name": "Anthony Raynsford", "Award Year": "2003", "Dissertati": "Sites of Lost Dwelling: The Figure of the Archaic City in the Discourses of Urban Design, 1940-70", "City": "Cambridge", "State": "MA", "Country": "USA", "addrtype": "locality", "addrlocat": "APPROXIMATE" }, "geometry": { "type": "Point", "coordinates": [ -71.1097335, 42.3736158 ] } },
{ "type": "Feature", "properties": { "Site Name": "Massachusetts Institute of Technology Archives", "University": "University of Chicago", "Full Name": "Anthony Raynsford", "Award Year": "2003", "Dissertati": "Sites of Lost Dwelling: The Figure of the Archaic City in the Discourses of Urban Design, 1940-70", "City": "Cambridge", "State": "MA", "Country": "USA", "addrtype": "locality", "addrlocat": "APPROXIMATE" }, "geometry": { "type": "Point", "coordinates": [ -71.1097335, 42.3736158 ] } },
{ "type": "Feature", "properties": { "Site Name": "Museum of Modern Art Archive", "University": "University of Chicago", "Full Name": "Anthony Raynsford", "Award Year": "2003", "Dissertati": "Sites of Lost Dwelling: The Figure of the Archaic City in the Discourses of Urban Design, 1940-70", "City": "New York", "State": "NY", "Country": "USA", "addrtype": "locality", "addrlocat": "APPROXIMATE" }, "geometry": { "type": "Point", "coordinates": [ -74.005941299999989, 40.7127837 ] } },
{ "type": "Feature", "properties": { "Site Name": "National Archives of Belgium", "University": "Columbia University", "Full Name": "Jun Hee (Jeun) Cho", "Award Year": "2009", "Dissertati": "Court in the Market: The Burgundian Capital(Mechelen) during the reign of Charles the Bold, 1467-77.", "City": "Brussels", "State": null, "Country": "Belgium", "addrtype": "locality", "addrlocat": "APPROXIMATE" }, "geometry": { "type": "Point", "coordinates": [ 4.3517103, 50.850339599999984 ] } },
{ "type": "Feature", "properties": { "Site Name": "Royal Danish Library", "University": "Maxwell School of Syracuse University", "Full Name": "Martin Gutmann", "Award Year": "2009", "Dissertati": "Fighting for the Nazi New Order: Neutral Elites in the Service of the German Waffen-SS", "City": "Copenhagen", "State": null, "Country": "Denmark", "addrtype": "locality", "addrlocat": "APPROXIMATE" }, "geometry": { "type": "Point", "coordinates": [ 12.5683371, 55.6760968 ] } },
{ "type": "Feature", "properties": { "Site Name": "Archivo General de la Nación, Mexico", "University": "University of Massachusetts, Amherst", "Full Name": "Robert Herr", "Award Year": "2009", "Dissertati": "Puppets and Proselytizing: Politics and Nation-Building in Post-Revolutionary Mexico's Didactic Theater", "City": "Mexico City", "State": null, "Country": "Mexico", "addrtype": "locality", "addrlocat": "APPROXIMATE" }, "geometry": { "type": "Point", "coordinates": [ -99.133208, 19.4326077 ] } },
{ "type": "Feature", "properties": { "Site Name": "Archivo Histórico de la Secretaría de Educación Pública de México", "University": "University of Massachusetts, Amherst", "Full Name": "Robert Herr", "Award Year": "2009", "Dissertati": "Puppets and Proselytizing: Politics and Nation-Building in Post-Revolutionary Mexico's Didactic Theater", "City": "Mexico City", "State": null, "Country": "Mexico", "addrtype": "locality", "addrlocat": "APPROXIMATE" }, "geometry": { "type": "Point", "coordinates": [ -99.133208, 19.4326077 ] } },
{ "type": "Feature", "properties": { "Site Name": "Biblioteca Nacional de M_xico", "University": "University of Massachusetts, Amherst", "Full Name": "Robert Herr", "Award Year": "2009", "Dissertati": "Puppets and Proselytizing: Politics and Nation-Building in Post-Revolutionary Mexico's Didactic Theater", "City": "Mexico City", "State": null, "Country": "Mexico", "addrtype": "locality", "addrlocat": "APPROXIMATE" }, "geometry": { "type": "Point", "coordinates": [ -99.133208, 19.4326077 ] } },
{ "type": "Feature", "properties": { "Site Name": "Centro Nacional de Investigación, Documentación e Información de Artes Plásticas (CENIDIAP)", "University": "University of Massachusetts, Amherst", "Full Name": "Robert Herr", "Award Year": "2009", "Dissertati": "Puppets and Proselytizing: Politics and Nation-Building in Post-Revolutionary Mexico's Didactic Theater", "City": "Mexico City", "State": null, "Country": "Mexico", "addrtype": "locality", "addrlocat": "APPROXIMATE" }, "geometry": { "type": "Point", "coordinates": [ -99.133208, 19.4326077 ] } },
{ "type": "Feature", "properties": { "Site Name": "Benaki Museum", "University": "University of Chicago", "Full Name": "Kristine Hess", "Award Year": "2009", "Dissertati": "Mount Sinai and the Monastery of Saint Catherine: Depicting 'Place' and 'Space' in Pilgrimage Art", "City": "Athens", "State": null, "Country": "Greece", "addrtype": "locality", "addrlocat": "APPROXIMATE" }, "geometry": { "type": "Point", "coordinates": [ 23.7293599, 37.983917 ] } },
{ "type": "Feature", "properties": { "Site Name": "Byzantine and Christian Museum", "University": "University of Chicago", "Full Name": "Kristine Hess", "Award Year": "2009", "Dissertati": "Mount Sinai and the Monastery of Saint Catherine: Depicting 'Place' and 'Space' in Pilgrimage Art", "City": "Athens", "State": null, "Country": "Greece", "addrtype": "locality", "addrlocat": "APPROXIMATE" }, "geometry": { "type": "Point", "coordinates": [ 23.7293599, 37.983917 ] } },
{ "type": "Feature", "properties": { "Site Name": "Gennadius Library, American School of Classical Studies", "University": "University of Chicago", "Full Name": "Kristine Hess", "Award Year": "2009", "Dissertati": "Mount Sinai and the Monastery of Saint Catherine: Depicting 'Place' and 'Space' in Pilgrimage Art", "City": "Athens", "State": null, "Country": "Greece", "addrtype": "locality", "addrlocat": "APPROXIMATE" }, "geometry": { "type": "Point", "coordinates": [ 23.7293599, 37.983917 ] } },
{ "type": "Feature", "properties": { "Site Name": "National Library of Greece", "University": "University of Chicago", "Full Name": "Kristine Hess", "Award Year": "2009", "Dissertati": "Mount Sinai and the Monastery of Saint Catherine: Depicting 'Place' and 'Space' in Pilgrimage Art", "City": "Athens", "State": null, "Country": "Greece", "addrtype": "locality", "addrlocat": "APPROXIMATE" }, "geometry": { "type": "Point", "coordinates": [ 23.7293599, 37.983917 ] } },
{ "type": "Feature", "properties": { "Site Name": "Vatican Museums", "University": "University of Chicago", "Full Name": "Kristine Hess", "Award Year": "2009", "Dissertati": "Mount Sinai and the Monastery of Saint Catherine: Depicting 'Place' and 'Space' in Pilgrimage Art", "City": "Rome", "State": null, "Country": "Italy", "addrtype": "locality", "addrlocat": "APPROXIMATE" }, "geometry": { "type": "Point", "coordinates": [ 12.4963655, 41.902783499999984 ] } },
{ "type": "Feature", "properties": { "Site Name": "Bayerische Staatsbibliothek", "University": "The Ohio State University", "Full Name": "Nicholas Johnson", "Award Year": "2009", "Dissertati": "Musica Caelestia: Hermetic Philosophy, Astronomy, and Music at the Court of Rudolf II", "City": "Munich", "State": null, "Country": "Germany", "addrtype": "locality", "addrlocat": "APPROXIMATE" }, "geometry": { "type": "Point", "coordinates": [ 11.5819806, 48.1351253 ] } },
{ "type": "Feature", "properties": { "Site Name": "Biblioteka Uniwersytecka we Wroclawiu", "University": "The Ohio State University", "Full Name": "Nicholas Johnson", "Award Year": "2009", "Dissertati": "Musica Caelestia: Hermetic Philosophy, Astronomy, and Music at the Court of Rudolf II", "City": "Wroclaw", "State": null, "Country": "Poland", "addrtype": "locality", "addrlocat": "APPROXIMATE" }, "geometry": { "type": "Point", "coordinates": [ 17.0385376, 51.107885199999984 ] } },
{ "type": "Feature", "properties": { "Site Name": "Music library, Institute für Musikwissenschaft, Universität Wien", "University": "The Ohio State University", "Full Name": "Nicholas Johnson", "Award Year": "2009", "Dissertati": "Musica Caelestia: Hermetic Philosophy, Astronomy, and Music at the Court of Rudolf II", "City": "Vienna", "State": null, "Country": "Austria", "addrtype": "locality", "addrlocat": "APPROXIMATE" }, "geometry": { "type": "Point", "coordinates": [ 16.3738189, 48.208174299999989 ] } },
{ "type": "Feature", "properties": { "Site Name": "Ésterreichische Nationalbibliothek", "University": "The Ohio State University", "Full Name": "Nicholas Johnson", "Award Year": "2009", "Dissertati": "Musica Caelestia: Hermetic Philosophy, Astronomy, and Music at the Court of Rudolf II", "City": "Vienna", "State": null, "Country": "Austria", "addrtype": "locality", "addrlocat": "APPROXIMATE" }, "geometry": { "type": "Point", "coordinates": [ 16.3738189, 48.208174299999989 ] } },
{ "type": "Feature", "properties": { "Site Name": "Bayerische Staatsbibliothek", "University": "University of Wisconsin-Madison", "Full Name": "Erin Lambert", "Award Year": "2009", "Dissertati": "Singing God's Image: Rethinking Religious Difference Through Sixteenth-Century Visual and Musical Culture", "City": "Munich", "State": null, "Country": "Germany", "addrtype": "locality", "addrlocat": "APPROXIMATE" }, "geometry": { "type": "Point", "coordinates": [ 11.5819806, 48.1351253 ] } },
{ "type": "Feature", "properties": { "Site Name": "Herzog August Bibliothek", "University": "University of Wisconsin-Madison", "Full Name": "Erin Lambert", "Award Year": "2009", "Dissertati": "Singing God's Image: Rethinking Religious Difference Through Sixteenth-Century Visual and Musical Culture", "City": "Wolfenbüttel", "State": null, "Country": "Germany", "addrtype": "locality", "addrlocat": "APPROXIMATE" }, "geometry": { "type": "Point", "coordinates": [ 10.5408484, 52.1640413 ] } },
{ "type": "Feature", "properties": { "Site Name": "Leiden University Library", "University": "University of Wisconsin-Madison", "Full Name": "Erin Lambert", "Award Year": "2009", "Dissertati": "Singing God's Image: Rethinking Religious Difference Through Sixteenth-Century Visual and Musical Culture", "City": "Leiden", "State": null, "Country": "Netherlands", "addrtype": "locality", "addrlocat": "APPROXIMATE" }, "geometry": { "type": "Point", "coordinates": [ 4.4970097, 52.160114399999983 ] } },
{ "type": "Feature", "properties": { "Site Name": "Meertens Instituut", "University": "University of Wisconsin-Madison", "Full Name": "Erin Lambert", "Award Year": "2009", "Dissertati": "Singing God's Image: Rethinking Religious Difference Through Sixteenth-Century Visual and Musical Culture", "City": "Amsterdam", "State": null, "Country": "Netherlands", "addrtype": "locality", "addrlocat": "APPROXIMATE" }, "geometry": { "type": "Point", "coordinates": [ 4.8951679, 52.370215699999989 ] } },
{ "type": "Feature", "properties": { "Site Name": "Staatsbibliothek zu Berlin", "University": "University of Wisconsin-Madison", "Full Name": "Erin Lambert", "Award Year": "2009", "Dissertati": "Singing God's Image: Rethinking Religious Difference Through Sixteenth-Century Visual and Musical Culture", "City": "Berlin", "State": null, "Country": "Germany", "addrtype": "locality", "addrlocat": "APPROXIMATE" }, "geometry": { "type": "Point", "coordinates": [ 13.404954, 52.520006599999988 ] } },
{ "type": "Feature", "properties": { "Site Name": "Utrecht University Library", "University": "University of Wisconsin-Madison", "Full Name": "Erin Lambert", "Award Year": "2009", "Dissertati": "Singing God's Image: Rethinking Religious Difference Through Sixteenth-Century Visual and Musical Culture", "City": "Utrecht", "State": null, "Country": "Netherlands", "addrtype": "locality", "addrlocat": "APPROXIMATE" }, "geometry": { "type": "Point", "coordinates": [ 5.1214201, 52.090737399999988 ] } },
{ "type": "Feature", "properties": { "Site Name": "Catholic Office for Education Archives, Kinshasa", "University": "University of Michigan", "Full Name": "Pedro Monaville", "Award Year": "2009", "Dissertati": "Global 1968 in Kinshasa: From a Student Massacre to Ruins in a Postcolonial University", "City": "Kinshasa", "State": null, "Country": "Democratic Republic of the Congo", "addrtype": "locality", "addrlocat": "APPROXIMATE" }, "geometry": { "type": "Point", "coordinates": [ 15.2662931, -4.4419311 ] } },
{ "type": "Feature", "properties": { "Site Name": "CEPAS", "University": "University of Michigan", "Full Name": "Pedro Monaville", "Award Year": "2009", "Dissertati": "Global 1968 in Kinshasa: From a Student Massacre to Ruins in a Postcolonial University", "City": "Kinshasa", "State": null, "Country": "Democratic Republic of the Congo", "addrtype": "locality", "addrlocat": "APPROXIMATE" }, "geometry": { "type": "Point", "coordinates": [ 15.2662931, -4.4419311 ] } },
{ "type": "Feature", "properties": { "Site Name": "French Presidential Archives", "University": "University of Michigan", "Full Name": "Pedro Monaville", "Award Year": "2009", "Dissertati": "Global 1968 in Kinshasa: From a Student Massacre to Ruins in a Postcolonial University", "City": "Paris", "State": null, "Country": "France", "addrtype": "locality", "addrlocat": "APPROXIMATE" }, "geometry": { "type": "Point", "coordinates": [ 2.3522219, 48.856614 ] } },
{ "type": "Feature", "properties": { "Site Name": "Ministry of Foreign Affairs Archive", "University": "University of Michigan", "Full Name": "Pedro Monaville", "Award Year": "2009", "Dissertati": "Global 1968 in Kinshasa: From a Student Massacre to Ruins in a Postcolonial University", "City": "Brussels", "State": null, "Country": "Belgium", "addrtype": "locality", "addrlocat": "APPROXIMATE" }, "geometry": { "type": "Point", "coordinates": [ 4.3517103, 50.850339599999984 ] } },
{ "type": "Feature", "properties": { "Site Name": "British National Archives, Public Record Office", "University": "George Washington University", "Full Name": "Lindsay Moore", "Award Year": "2009", "Dissertati": "Women at Law in England and the Chesapeake, 1630-1700", "City": "London", "State": null, "Country": "United Kingdom", "addrtype": "locality", "addrlocat": "APPROXIMATE" }, "geometry": { "type": "Point", "coordinates": [ -0.1277583, 51.507350899999985 ] } },
{ "type": "Feature", "properties": { "Site Name": "London Metropolitan Archives", "University": "George Washington University", "Full Name": "Lindsay Moore", "Award Year": "2009", "Dissertati": "Women at Law in England and the Chesapeake, 1630-1700", "City": "London", "State": null, "Country": "United Kingdom", "addrtype": "locality", "addrlocat": "APPROXIMATE" }, "geometry": { "type": "Point", "coordinates": [ -0.1277583, 51.507350899999985 ] } },
{ "type": "Feature", "properties": { "Site Name": "Phillips Library", "University": "George Washington University", "Full Name": "Lindsay Moore", "Award Year": "2009", "Dissertati": "Women at Law in England and the Chesapeake, 1630-1700", "City": "Salem", "State": "MA", "Country": "USA", "addrtype": "locality", "addrlocat": "APPROXIMATE" }, "geometry": { "type": "Point", "coordinates": [ -70.896715499999971, 42.51954 ] } },
{ "type": "Feature", "properties": { "Site Name": "History Research Center, National Museum of American History", "University": "Boston University", "Full Name": "Virginia Myhaver", "Award Year": "2009", "Dissertati": "The 'New American Revolution': Cultural Politics and the 1976 American Bicentennial", "City": "Washington", "State": "DC", "Country": "USA", "addrtype": "locality", "addrlocat": "APPROXIMATE" }, "geometry": { "type": "Point", "coordinates": [ -77.036870699999966, 38.9071923 ] } },
{ "type": "Feature", "properties": { "Site Name": "Library of Congress", "University": "Boston University", "Full Name": "Virginia Myhaver", "Award Year": "2009", "Dissertati": "The 'New American Revolution': Cultural Politics and the 1976 American Bicentennial", "City": "Washington", "State": "DC", "Country": "USA", "addrtype": "locality", "addrlocat": "APPROXIMATE" }, "geometry": { "type": "Point", "coordinates": [ -77.036870699999966, 38.9071923 ] } },
{ "type": "Feature", "properties": { "Site Name": "National Archives, College Park, MD (NARA II)", "University": "Boston University", "Full Name": "Virginia Myhaver", "Award Year": "2009", "Dissertati": "The 'New American Revolution': Cultural Politics and the 1976 American Bicentennial", "City": "College Park", "State": "MD", "Country": "USA", "addrtype": "locality", "addrlocat": "APPROXIMATE" }, "geometry": { "type": "Point", "coordinates": [ -76.93776, 38.9896967 ] } },
{ "type": "Feature", "properties": { "Site Name": "Paley Center for Media", "University": "Boston University", "Full Name": "Virginia Myhaver", "Award Year": "2009", "Dissertati": "The 'New American Revolution': Cultural Politics and the 1976 American Bicentennial", "City": "New York", "State": "NY", "Country": "USA", "addrtype": "route", "addrlocat": "GEOMETRIC_CENTER" }, "geometry": { "type": "Point", "coordinates": [ -73.883994299999983, 40.8393996 ] } },
{ "type": "Feature", "properties": { "Site Name": "Ralph Rinzler Folklife Archive, Center for Folklife and Cultural Heritage", "University": "Boston University", "Full Name": "Virginia Myhaver", "Award Year": "2009", "Dissertati": "The 'New American Revolution': Cultural Politics and the 1976 American Bicentennial", "City": "Washington", "State": "DC", "Country": "USA", "addrtype": "locality", "addrlocat": "APPROXIMATE" }, "geometry": { "type": "Point", "coordinates": [ -77.036870699999966, 38.9071923 ] } },
{ "type": "Feature", "properties": { "Site Name": "Smithsonian Institutional Archives", "University": "Boston University", "Full Name": "Virginia Myhaver", "Award Year": "2009", "Dissertati": "The 'New American Revolution': Cultural Politics and the 1976 American Bicentennial", "City": "Washington", "State": "DC", "Country": "USA", "addrtype": "locality", "addrlocat": "APPROXIMATE" }, "geometry": { "type": "Point", "coordinates": [ -77.036870699999966, 38.9071923 ] } },
{ "type": "Feature", "properties": { "Site Name": "Bodleian Library, Oxford University", "University": "Brown University", "Full Name": "Daphna Oren-Magidor", "Award Year": "2009", "Dissertati": "Dealing with Infertility in Early Modern England", "City": "Oxford", "State": null, "Country": "United Kingdom", "addrtype": "locality", "addrlocat": "APPROXIMATE" }, "geometry": { "type": "Point", "coordinates": [ -1.2577263, 51.752020899999984 ] } },
{ "type": "Feature", "properties": { "Site Name": "British Library", "University": "Brown University", "Full Name": "Daphna Oren-Magidor", "Award Year": "2009", "Dissertati": "Dealing with Infertility in Early Modern England", "City": "London", "State": null, "Country": "United Kingdom", "addrtype": "locality", "addrlocat": "APPROXIMATE" }, "geometry": { "type": "Point", "coordinates": [ -0.1277583, 51.507350899999985 ] } },
{ "type": "Feature", "properties": { "Site Name": "British National Archives, Public Record Office", "University": "Brown University", "Full Name": "Daphna Oren-Magidor", "Award Year": "2009", "Dissertati": "Dealing with Infertility in Early Modern England", "City": "London", "State": null, "Country": "United Kingdom", "addrtype": "locality", "addrlocat": "APPROXIMATE" }, "geometry": { "type": "Point", "coordinates": [ -0.1277583, 51.507350899999985 ] } },
{ "type": "Feature", "properties": { "Site Name": "Folger Shakespeare Library", "University": "Brown University", "Full Name": "Daphna Oren-Magidor", "Award Year": "2009", "Dissertati": "Dealing with Infertility in Early Modern England", "City": "Washington", "State": "DC", "Country": "USA", "addrtype": "route", "addrlocat": "GEOMETRIC_CENTER" }, "geometry": { "type": "Point", "coordinates": [ -77.017482699999988, 38.905091899999988 ] } },
{ "type": "Feature", "properties": { "Site Name": "Harvard Center for the History of Medicine", "University": "Brown University", "Full Name": "Daphna Oren-Magidor", "Award Year": "2009", "Dissertati": "Dealing with Infertility in Early Modern England", "City": "Boston", "State": "MA", "Country": "USA", "addrtype": "locality", "addrlocat": "APPROXIMATE" }, "geometry": { "type": "Point", "coordinates": [ -71.058880099999968, 42.3600825 ] } },
{ "type": "Feature", "properties": { "Site Name": "London Metropolitan Archives", "University": "Brown University", "Full Name": "Daphna Oren-Magidor", "Award Year": "2009", "Dissertati": "Dealing with Infertility in Early Modern England", "City": "London", "State": null, "Country": "United Kingdom", "addrtype": "locality", "addrlocat": "APPROXIMATE" }, "geometry": { "type": "Point", "coordinates": [ -0.1277583, 51.507350899999985 ] } },
{ "type": "Feature", "properties": { "Site Name": "Wellcome Library", "University": "Brown University", "Full Name": "Daphna Oren-Magidor", "Award Year": "2009", "Dissertati": "Dealing with Infertility in Early Modern England", "City": "London", "State": null, "Country": "United Kingdom", "addrtype": "locality", "addrlocat": "APPROXIMATE" }, "geometry": { "type": "Point", "coordinates": [ -0.1277583, 51.507350899999985 ] } },
{ "type": "Feature", "properties": { "Site Name": "Antigua National Archives", "University": "University of California, San Diego", "Full Name": "Jamie Rosenthal", "Award Year": "2009", "Dissertati": "Of Bonds and Bondage: Gender, Slavery, and Transatlantic Intimacies in the Eighteenth Century", "City": "St. John's", "State": null, "Country": "Antigua", "addrtype": "locality", "addrlocat": "APPROXIMATE" }, "geometry": { "type": "Point", "coordinates": [ -61.846772, 17.1274104 ] } },
{ "type": "Feature", "properties": { "Site Name": "British Library", "University": "University of California, San Diego", "Full Name": "Jamie Rosenthal", "Award Year": "2009", "Dissertati": "Of Bonds and Bondage: Gender, Slavery, and Transatlantic Intimacies in the Eighteenth Century", "City": "London", "State": null, "Country": "United Kingdom", "addrtype": "locality", "addrlocat": "APPROXIMATE" }, "geometry": { "type": "Point", "coordinates": [ -0.1277583, 51.507350899999985 ] } },
{ "type": "Feature", "properties": { "Site Name": "Huntington Library", "University": "University of California, San Diego", "Full Name": "Jamie Rosenthal", "Award Year": "2009", "Dissertati": "Of Bonds and Bondage: Gender, Slavery, and Transatlantic Intimacies in the Eighteenth Century", "City": "San Marino", "State": "CA", "Country": "USA", "addrtype": "locality", "addrlocat": "APPROXIMATE" }, "geometry": { "type": "Point", "coordinates": [ -118.106458499999988, 34.121397 ] } },
{ "type": "Feature", "properties": { "Site Name": "Institute of Commonwealth Studies Library, University of London", "University": "University of California, San Diego", "Full Name": "Jamie Rosenthal", "Award Year": "2009", "Dissertati": "Of Bonds and Bondage: Gender, Slavery, and Transatlantic Intimacies in the Eighteenth Century", "City": "London", "State": null, "Country": "United Kingdom", "addrtype": "locality", "addrlocat": "APPROXIMATE" }, "geometry": { "type": "Point", "coordinates": [ -0.1277583, 51.507350899999985 ] } },
{ "type": "Feature", "properties": { "Site Name": "Museum of Antigua and Barbuda Library", "University": "University of California, San Diego", "Full Name": "Jamie Rosenthal", "Award Year": "2009", "Dissertati": "Of Bonds and Bondage: Gender, Slavery, and Transatlantic Intimacies in the Eighteenth Century", "City": "St. John's", "State": null, "Country": "Antigua", "addrtype": "locality", "addrlocat": "APPROXIMATE" }, "geometry": { "type": "Point", "coordinates": [ -61.846772, 17.1274104 ] } },
{ "type": "Feature", "properties": { "Site Name": "School of Oriental and African Studies Library, University of London", "University": "University of California, San Diego", "Full Name": "Jamie Rosenthal", "Award Year": "2009", "Dissertati": "Of Bonds and Bondage: Gender, Slavery, and Transatlantic Intimacies in the Eighteenth Century", "City": "London", "State": null, "Country": "United Kingdom", "addrtype": "locality", "addrlocat": "APPROXIMATE" }, "geometry": { "type": "Point", "coordinates": [ -0.1277583, 51.507350899999985 ] } },
{ "type": "Feature", "properties": { "Site Name": "Archives of the International Committee of the Red Cross (AICRC)", "University": "Binghamton University", "Full Name": "Jaime Wadowiec", "Award Year": "2009", "Dissertati": "The Afterlives of Empire: Immigration and the Politics of Difference in Decolonized France, 1962-1974", "City": "Geneva", "State": null, "Country": "Switzerland", "addrtype": "locality", "addrlocat": "APPROXIMATE" }, "geometry": { "type": "Point", "coordinates": [ 6.1431577, 46.204390699999983 ] } },
{ "type": "Feature", "properties": { "Site Name": "Bibliotheque Nationale de France", "University": "Binghamton University", "Full Name": "Jaime Wadowiec", "Award Year": "2009", "Dissertati": "The Afterlives of Empire: Immigration and the Politics of Difference in Decolonized France, 1962-1974", "City": "Paris", "State": null, "Country": "France", "addrtype": "locality", "addrlocat": "APPROXIMATE" }, "geometry": { "type": "Point", "coordinates": [ 2.3522219, 48.856614 ] } },
{ "type": "Feature", "properties": { "Site Name": "Centre d'accueil et de recherche des Archives Nationales (CARAN)", "University": "Binghamton University", "Full Name": "Jaime Wadowiec", "Award Year": "2009", "Dissertati": "The Afterlives of Empire: Immigration and the Politics of Difference in Decolonized France, 1962-1974", "City": "Paris", "State": null, "Country": "France", "addrtype": "locality", "addrlocat": "APPROXIMATE" }, "geometry": { "type": "Point", "coordinates": [ 2.3522219, 48.856614 ] } },
{ "type": "Feature", "properties": { "Site Name": "Departmental archives of the Gard", "University": "Binghamton University", "Full Name": "Jaime Wadowiec", "Award Year": "2009", "Dissertati": "The Afterlives of Empire: Immigration and the Politics of Difference in Decolonized France, 1962-1974", "City": "Nimes", "State": null, "Country": "France", "addrtype": "locality", "addrlocat": "APPROXIMATE" }, "geometry": { "type": "Point", "coordinates": [ 4.360054, 43.836699 ] } },
{ "type": "Feature", "properties": { "Site Name": "Service Historique de l'Armée de Terre (Army Archives)", "University": "Binghamton University", "Full Name": "Jaime Wadowiec", "Award Year": "2009", "Dissertati": "The Afterlives of Empire: Immigration and the Politics of Difference in Decolonized France, 1962-1974", "City": "Vincennes", "State": null, "Country": "France", "addrtype": "locality", "addrlocat": "APPROXIMATE" }, "geometry": { "type": "Point", "coordinates": [ 2.4394969, 48.847759 ] } },