{
"type": "FeatureCollection",
"crs": { "type": "name", "properties": { "name": "urn:ogc:def:crs:OGC:1.3:CRS84" } },
                                                                                
"features": [
{ "type": "Feature", "properties": { "Organizat": "Princeton University", "Address": "One Washington Road", "City": "Princeton", "StateTerri": "NJ", "Postal Cod": "08544-2002", "Country": "USA", "addrtype": "street_address", "addrlocat": "RANGE_INTERPOLATED" }, "geometry": { "type": "Point", "coordinates": [ -74.657056599999976, 40.3503239 ] } },
{ "type": "Feature", "properties": { "Organizat": "Purdue University", "Address": "504 West State Street", "City": "West Lafayette", "StateTerri": "IN", "Postal Cod": "47907-2058", "Country": "USA", "addrtype": "premise", "addrlocat": "ROOFTOP" }, "geometry": { "type": "Point", "coordinates": [ -86.912637, 40.4245283 ] } },
{ "type": "Feature", "properties": { "Organizat": "Rice University", "Address": "Fondren Library MS-44", "City": "Houston", "StateTerri": "TX", "Postal Cod": "77251-1892", "Country": "USA", "addrtype": "locality", "addrlocat": "APPROXIMATE" }, "geometry": { "type": "Point", "coordinates": [ -95.369802799999974, 29.7604267 ] } },
{ "type": "Feature", "properties": { "Organizat": "Smithsonian Institution", "Address": "PO Box 37012", "City": "Washington", "StateTerri": "DC", "Postal Cod": "20013-7012", "Country": "USA", "addrtype": "locality", "addrlocat": "APPROXIMATE" }, "geometry": { "type": "Point", "coordinates": [ -77.036870699999966, 38.9071923 ] } },
{ "type": "Feature", "properties": { "Organizat": "Stanford University", "Address": "Cecil H. Green Library rm. 101", "City": "Stanford", "StateTerri": "CA", "Postal Cod": "94305-6004", "Country": "USA", "addrtype": "locality", "addrlocat": "APPROXIMATE" }, "geometry": { "type": "Point", "coordinates": [ -122.166075599999971, 37.424106 ] } },
{ "type": "Feature", "properties": { "Organizat": "State University of New York at Albany", "Address": "1400 Washington Avenue", "City": "Albany", "StateTerri": "NY", "Postal Cod": "12222-0001", "Country": "USA", "addrtype": "street_address", "addrlocat": "ROOFTOP" }, "geometry": { "type": "Point", "coordinates": [ -73.821923699999971, 42.685006499999986 ] } },
{ "type": "Feature", "properties": { "Organizat": "Texas A&M University", "Address": "5000 TAMU", "City": "College Station", "StateTerri": "TX", "Postal Cod": "77843-5000", "Country": "USA", "addrtype": "airport", "addrlocat": "APPROXIMATE" }, "geometry": { "type": "Point", "coordinates": [ -96.365890499999978, 30.5929524 ] } },
{ "type": "Feature", "properties": { "Organizat": "The George Washington University", "Address": "2130 H Street, NW", "City": "Washington", "StateTerri": "DC", "Postal Cod": "20052", "Country": "USA", "addrtype": "premise", "addrlocat": "ROOFTOP" }, "geometry": { "type": "Point", "coordinates": [ -77.0484016, 38.899204699999984 ] } },
{ "type": "Feature", "properties": { "Organizat": "University of Arizona", "Address": "1510 East University", "City": "Tucson", "StateTerri": "AZ", "Postal Cod": "85721-0055", "Country": "USA", "addrtype": "street_address", "addrlocat": "ROOFTOP" }, "geometry": { "type": "Point", "coordinates": [ -110.952023799999978, 32.2324275 ] } },
{ "type": "Feature", "properties": { "Organizat": "University of British Columbia", "Address": "1961 East Mall", "City": "Vancouver", "StateTerri": "BC", "Postal Cod": "V6T 1Z1", "Country": "Canada", "addrtype": "street_address", "addrlocat": "ROOFTOP" }, "geometry": { "type": "Point", "coordinates": [ -123.252321, 49.267581 ] } },
{ "type": "Feature", "properties": { "Organizat": "University of California, Berkeley", "Address": "255 Doe Library", "City": "Berkeley", "StateTerri": "CA", "Postal Cod": "94720-6000", "Country": "USA", "addrtype": "route", "addrlocat": "GEOMETRIC_CENTER" }, "geometry": { "type": "Point", "coordinates": [ -122.259432899999979, 37.872249299999986 ] } },
{ "type": "Feature", "properties": { "Organizat": "University of California, Los Angeles", "Address": "Box 951575", "City": "Los Angeles", "StateTerri": "CA", "Postal Cod": "90095-1575", "Country": "USA", "addrtype": "premise", "addrlocat": "ROOFTOP" }, "geometry": { "type": "Point", "coordinates": [ -118.337953399999975, 34.112254299999989 ] } },
{ "type": "Feature", "properties": { "Organizat": "University of California, San Diego", "Address": "9500 Gilman Drive", "City": "La Jolla", "StateTerri": "CA", "Postal Cod": "92093-0175", "Country": "USA", "addrtype": "street_number", "addrlocat": "APPROXIMATE" }, "geometry": { "type": "Point", "coordinates": [ -117.242258399999969, 32.8879121 ] } },
{ "type": "Feature", "properties": { "Organizat": "University of Chicago", "Address": "1100 East 57th Street - Room 180", "City": "Chicago", "StateTerri": "IL", "Postal Cod": "60637-1502", "Country": "USA", "addrtype": "subpremise", "addrlocat": "ROOFTOP" }, "geometry": { "type": "Point", "coordinates": [ -87.600055899999987, 41.7923796 ] } },
{ "type": "Feature", "properties": { "Organizat": "University of Delaware", "Address": "181 South College Avenue", "City": "Newark", "StateTerri": "DE", "Postal Cod": "19717-5267", "Country": "USA", "addrtype": "premise", "addrlocat": "ROOFTOP" }, "geometry": { "type": "Point", "coordinates": [ -75.752915899999977, 39.6780454 ] } },
{ "type": "Feature", "properties": { "Organizat": "University of Iowa", "Address": "100 Main Library", "City": "Iowa City", "StateTerri": "IA", "Postal Cod": "52242-1420", "Country": "USA", "addrtype": "locality", "addrlocat": "APPROXIMATE" }, "geometry": { "type": "Point", "coordinates": [ -91.530168299999985, 41.6611277 ] } },
{ "type": "Feature", "properties": { "Organizat": "University of Maryland at College Park", "Address": "6131 McKeldin Library", "City": "College Park", "StateTerri": "MD", "Postal Cod": "20742", "Country": "USA", "addrtype": "locality", "addrlocat": "APPROXIMATE" }, "geometry": { "type": "Point", "coordinates": [ -76.93776, 38.9896967 ] } },
{ "type": "Feature", "properties": { "Organizat": "University of Michigan", "Address": "320 Hatcher North", "City": "Ann Arbor", "StateTerri": "MI", "Postal Cod": "48109-1190", "Country": "USA", "addrtype": "route", "addrlocat": "GEOMETRIC_CENTER" }, "geometry": { "type": "Point", "coordinates": [ -83.7751118, 42.2945646 ] } },
{ "type": "Feature", "properties": { "Organizat": "University of North Carolina at Chapel Hill", "Address": "Davis Library", "City": "Chapel Hill", "StateTerri": "NC", "Postal Cod": "27514-8890", "Country": "USA", "addrtype": "bus_station", "addrlocat": "APPROXIMATE" }, "geometry": { "type": "Point", "coordinates": [ -79.04668, 35.91075 ] } },
{ "type": "Feature", "properties": { "Organizat": "University of North Texas", "Address": "1155 Union Circle #305190", "City": "Denton", "StateTerri": "TX", "Postal Cod": "76203-5017", "Country": "USA", "addrtype": "subpremise", "addrlocat": "ROOFTOP" }, "geometry": { "type": "Point", "coordinates": [ -97.147053899999989, 33.2109838 ] } },
{ "type": "Feature", "properties": { "Organizat": "University of Pennsylvania", "Address": "3420 Walnut Street", "City": "Philadelphia", "StateTerri": "PA", "Postal Cod": "19104-6206", "Country": "USA", "addrtype": "premise", "addrlocat": "ROOFTOP" }, "geometry": { "type": "Point", "coordinates": [ -75.193934499999983, 39.9527015 ] } },
{ "type": "Feature", "properties": { "Organizat": "University of Tennessee", "Address": "1015 Volunteer Boulevard", "City": "Knoxville", "StateTerri": "TN", "Postal Cod": "37996-1000", "Country": "USA", "addrtype": "street_address", "addrlocat": "ROOFTOP" }, "geometry": { "type": "Point", "coordinates": [ -83.929785899999985, 35.955093 ] } },
{ "type": "Feature", "properties": { "Organizat": "University of Utah", "Address": "295 South 1500 East", "City": "Salt Lake City", "StateTerri": "UT", "Postal Cod": "84112-0860", "Country": "USA", "addrtype": "premise", "addrlocat": "ROOFTOP" }, "geometry": { "type": "Point", "coordinates": [ -111.846162399999969, 40.7624806 ] } },
{ "type": "Feature", "properties": { "Organizat": "University of Virginia", "Address": "Alderman Library", "City": "Charlottesville", "StateTerri": "VA", "Postal Cod": "22904-4114", "Country": "USA", "addrtype": "locality", "addrlocat": "APPROXIMATE" }, "geometry": { "type": "Point", "coordinates": [ -78.476678099999987, 38.0293059 ] } },
{ "type": "Feature", "properties": { "Organizat": "Virginia Polytechnic Institute and State University", "Address": "Drillfield Drive", "City": "Blacksburg", "StateTerri": "VA", "Postal Cod": "24062-9001", "Country": "USA", "addrtype": "route", "addrlocat": "GEOMETRIC_CENTER" }, "geometry": { "type": "Point", "coordinates": [ -80.422975899999983, 37.2283922 ] } },
{ "type": "Feature", "properties": { "Organizat": "American University of Sharjah", "Address": "P.O. Box 26666", "City": "Sharjah", "StateTerri": null, "Postal Cod": null, "Country": "United Arab Emirates", "addrtype": "locality", "addrlocat": "APPROXIMATE" }, "geometry": { "type": "Point", "coordinates": [ 55.513643299999984, 25.3223269 ] } },
{ "type": "Feature", "properties": { "Organizat": "Atlanta University Center", "Address": "111 James P. Brawley Drive, SW", "City": "Atlanta", "StateTerri": "GA", "Postal Cod": "30314", "Country": "USA", "addrtype": "premise", "addrlocat": "ROOFTOP" }, "geometry": { "type": "Point", "coordinates": [ -84.413542, 33.7515358 ] } },
{ "type": "Feature", "properties": { "Organizat": "Berea College", "Address": "Hutchins Library\/CPO Library", "City": "Berea", "StateTerri": "KY", "Postal Cod": "40404", "Country": "USA", "addrtype": "locality", "addrlocat": "APPROXIMATE" }, "geometry": { "type": "Point", "coordinates": [ -84.296322299999986, 37.568694 ] } },
{ "type": "Feature", "properties": { "Organizat": "Bucknell University", "Address": "219 Bertrand Library", "City": "Lewisburg", "StateTerri": "PA", "Postal Cod": "17837", "Country": "USA", "addrtype": "premise", "addrlocat": "ROOFTOP" }, "geometry": { "type": "Point", "coordinates": [ -76.8826353, 40.9542955 ] } },
{ "type": "Feature", "properties": { "Organizat": "California Polytechnic State University", "Address": "One Grand Avenue", "City": "San Luis Obispo", "StateTerri": "CA", "Postal Cod": "93407", "Country": "USA", "addrtype": "street_address", "addrlocat": "ROOFTOP" }, "geometry": { "type": "Point", "coordinates": [ -120.657845699999953, 35.3004953 ] } },
{ "type": "Feature", "properties": { "Organizat": "Carthage College", "Address": "2001 Alford Park Drive", "City": "Kenosha", "StateTerri": "WI", "Postal Cod": "53140-1994", "Country": "USA", "addrtype": "premise", "addrlocat": "ROOFTOP" }, "geometry": { "type": "Point", "coordinates": [ -87.820980799999973, 42.6229548 ] } },
{ "type": "Feature", "properties": { "Organizat": "Colgate University", "Address": "13 Oak Drive", "City": "Hamilton", "StateTerri": "NY", "Postal Cod": "13346-1386", "Country": "USA", "addrtype": "street_address", "addrlocat": "ROOFTOP" }, "geometry": { "type": "Point", "coordinates": [ -75.536495599999967, 42.8183255 ] } },
{ "type": "Feature", "properties": { "Organizat": "College of the Holy Cross", "Address": "1 College Street", "City": "Worcester", "StateTerri": "MA", "Postal Cod": "01610", "Country": "USA", "addrtype": "street_address", "addrlocat": "ROOFTOP" }, "geometry": { "type": "Point", "coordinates": [ -71.805492499999986, 42.238135799999988 ] } },
{ "type": "Feature", "properties": { "Organizat": "Connecticut College", "Address": "270 Mohegan Avenue", "City": "New London", "StateTerri": "CT", "Postal Cod": "06320-4196", "Country": "USA", "addrtype": "street_address", "addrlocat": "ROOFTOP" }, "geometry": { "type": "Point", "coordinates": [ -72.1050691, 41.378387499999988 ] } },
{ "type": "Feature", "properties": { "Organizat": "Earlham College", "Address": "Lilly Libary", "City": "Richmond", "StateTerri": "IN", "Postal Cod": "47374-4095", "Country": "USA", "addrtype": "locality", "addrlocat": "APPROXIMATE" }, "geometry": { "type": "Point", "coordinates": [ -84.8902382, 39.828936899999988 ] } },
{ "type": "Feature", "properties": { "Organizat": "Furman University", "Address": "3300 Poinsett Highway", "City": "Greenville", "StateTerri": "SC", "Postal Cod": "29613", "Country": "USA", "addrtype": "street_address", "addrlocat": "ROOFTOP" }, "geometry": { "type": "Point", "coordinates": [ -82.4392466, 34.9247213 ] } },
{ "type": "Feature", "properties": { "Organizat": "Grinnell College", "Address": "1111 Sixth Avenue", "City": "Grinnell", "StateTerri": "IA", "Postal Cod": "50112-1690", "Country": "USA", "addrtype": "street_address", "addrlocat": "RANGE_INTERPOLATED" }, "geometry": { "type": "Point", "coordinates": [ -92.720640599999967, 41.745563299999986 ] } },
{ "type": "Feature", "properties": { "Organizat": "Haverford College", "Address": "370 Lancaster Avenue", "City": "Haverford", "StateTerri": "PA", "Postal Cod": "19041-1336", "Country": "USA", "addrtype": "street_address", "addrlocat": "ROOFTOP" }, "geometry": { "type": "Point", "coordinates": [ -75.2994395, 40.0117552 ] } },
{ "type": "Feature", "properties": { "Organizat": "Lake Forest College", "Address": "555 North Sheridan Road", "City": "Lake Forest", "StateTerri": "IL", "Postal Cod": "60045-2399", "Country": "USA", "addrtype": "street_address", "addrlocat": "ROOFTOP" }, "geometry": { "type": "Point", "coordinates": [ -87.827706199999966, 42.250595 ] } },
{ "type": "Feature", "properties": { "Organizat": "Luther College", "Address": "700 College Drive", "City": "Decorah", "StateTerri": "IA", "Postal Cod": "52101", "Country": "USA", "addrtype": "street_address", "addrlocat": "ROOFTOP" }, "geometry": { "type": "Point", "coordinates": [ -91.806280699999988, 43.3109675 ] } },
{ "type": "Feature", "properties": { "Organizat": "Middlebury College", "Address": "110 Storrs Avenue", "City": "Middlebury", "StateTerri": "VT", "Postal Cod": "05753", "Country": "USA", "addrtype": "street_address", "addrlocat": "ROOFTOP" }, "geometry": { "type": "Point", "coordinates": [ -73.174474899999979, 44.0094624 ] } },
{ "type": "Feature", "properties": { "Organizat": "Pacific Lutheran University", "Address": "1010 122nd Street S.", "City": "Tacoma", "StateTerri": "WA", "Postal Cod": "98447", "Country": "USA", "addrtype": "premise", "addrlocat": "ROOFTOP" }, "geometry": { "type": "Point", "coordinates": [ -122.446465499999974, 47.145692299999986 ] } },
{ "type": "Feature", "properties": { "Organizat": "Reed College", "Address": "3203 SE Woodstock Boulevard", "City": "Portland", "StateTerri": "OR", "Postal Cod": "97202-8199", "Country": "USA", "addrtype": "street_address", "addrlocat": "ROOFTOP" }, "geometry": { "type": "Point", "coordinates": [ -122.630145499999983, 45.4809642 ] } },
{ "type": "Feature", "properties": { "Organizat": "Sewanee, The University of the South", "Address": "735 University Avenue", "City": "Sewanee", "StateTerri": "TN", "Postal Cod": "37383-1000", "Country": "USA", "addrtype": "premise", "addrlocat": "ROOFTOP" }, "geometry": { "type": "Point", "coordinates": [ -85.9208631, 35.2027875 ] } },
{ "type": "Feature", "properties": { "Organizat": "Smith College", "Address": "Neilson Library", "City": "Northampton", "StateTerri": "MA", "Postal Cod": "01063-0001", "Country": "USA", "addrtype": "locality", "addrlocat": "APPROXIMATE" }, "geometry": { "type": "Point", "coordinates": [ -72.6412013, 42.325089599999984 ] } },
{ "type": "Feature", "properties": { "Organizat": "St. Olaf College", "Address": "1510 St. Olaf Avenue", "City": "Northfield", "StateTerri": "MN", "Postal Cod": "55057", "Country": "USA", "addrtype": "premise", "addrlocat": "ROOFTOP" }, "geometry": { "type": "Point", "coordinates": [ -93.182003199999969, 44.461378 ] } },
{ "type": "Feature", "properties": { "Organizat": "State University of New York at Brockport", "Address": "350 New Campus Drive", "City": "Brockport", "StateTerri": "NY", "Postal Cod": "14420-2995", "Country": "USA", "addrtype": "premise", "addrlocat": "ROOFTOP" }, "geometry": { "type": "Point", "coordinates": [ -77.947221399999989, 43.212797799999983 ] } },
{ "type": "Feature", "properties": { "Organizat": "The Claremont Colleges", "Address": "800 North Dartmouth", "City": "Claremont", "StateTerri": "CA", "Postal Cod": "91711-3991", "Country": "USA", "addrtype": "street_address", "addrlocat": "ROOFTOP" }, "geometry": { "type": "Point", "coordinates": [ -117.7124691, 34.1020957 ] } },
{ "type": "Feature", "properties": { "Organizat": "Union College", "Address": "807 Union Street", "City": "Schenectady", "StateTerri": "NY", "Postal Cod": "12308", "Country": "USA", "addrtype": "street_address", "addrlocat": "ROOFTOP" }, "geometry": { "type": "Point", "coordinates": [ -73.930620099999985, 42.8155653 ] } },
{ "type": "Feature", "properties": { "Organizat": "University of Puget Sound", "Address": "Collins Memorial Library", "City": "Tacoma", "StateTerri": "WA", "Postal Cod": "98416-1021", "Country": "USA", "addrtype": "locality", "addrlocat": "APPROXIMATE" }, "geometry": { "type": "Point", "coordinates": [ -122.4442906, 47.2528768 ] } },
{ "type": "Feature", "properties": { "Organizat": "University of St. Thomas", "Address": "2115 Summit Avenue", "City": "St. Paul", "StateTerri": "MN", "Postal Cod": "55105-1096", "Country": "USA", "addrtype": "street_address", "addrlocat": "ROOFTOP" }, "geometry": { "type": "Point", "coordinates": [ -93.189713899999987, 44.9441221 ] } },
{ "type": "Feature", "properties": { "Organizat": "Vassar College", "Address": "Box 20", "City": "Poughkeepsie", "StateTerri": "NY", "Postal Cod": "12604-0020", "Country": "USA", "addrtype": "street_address", "addrlocat": "RANGE_INTERPOLATED" }, "geometry": { "type": "Point", "coordinates": [ -73.546260499999988, 41.800905399999984 ] } },
{ "type": "Feature", "properties": { "Organizat": "Washington and Lee University", "Address": "204 West Washington Street", "City": "Lexington", "StateTerri": "VA", "Postal Cod": "24450-0303", "Country": "USA", "addrtype": "street_address", "addrlocat": "ROOFTOP" }, "geometry": { "type": "Point", "coordinates": [ -79.4440952, 37.7915362 ] } },
{ "type": "Feature", "properties": { "Organizat": "Wesleyan University", "Address": "252 Church Street", "City": "Middletown", "StateTerri": "CT", "Postal Cod": "6459", "Country": "USA", "addrtype": "premise", "addrlocat": "ROOFTOP" }, "geometry": { "type": "Point", "coordinates": [ -72.6571456, 41.5545731 ] } },
{ "type": "Feature", "properties": { "Organizat": "State University of New York at Stony Brook", "Address": null, "City": "Stony Brook", "StateTerri": "NY", "Postal Cod": "11790", "Country": "USA", "addrtype": "locality", "addrlocat": "APPROXIMATE" }, "geometry": { "type": "Point", "coordinates": [ -73.1409429, 40.9256538 ] } },
{ "type": "Feature", "properties": { "Organizat": "Amherst College", "Address": "P.O. Box 2256", "City": "Amherst", "StateTerri": "MA", "Postal Cod": "01002", "Country": "USA", "addrtype": "locality", "addrlocat": "APPROXIMATE" }, "geometry": { "type": "Point", "coordinates": [ -72.5198537, 42.373221599999987 ] } },
{ "type": "Feature", "properties": { "Organizat": "Bates College", "Address": "48 Campus Avenue", "City": "Lewiston", "StateTerri": "ME", "Postal Cod": "04240", "Country": "USA", "addrtype": "premise", "addrlocat": "ROOFTOP" }, "geometry": { "type": "Point", "coordinates": [ -70.203442899999985, 44.105245 ] } },
{ "type": "Feature", "properties": { "Organizat": "Bowdoin College", "Address": "3000 College Station", "City": "Brunswick", "StateTerri": "ME", "Postal Cod": "04011", "Country": "USA", "addrtype": "route", "addrlocat": "GEOMETRIC_CENTER" }, "geometry": { "type": "Point", "coordinates": [ -69.96198, 43.906776 ] } },
{ "type": "Feature", "properties": { "Organizat": "California Lutheran University", "Address": "MC5100", "City": "Thousand Oaks", "StateTerri": "CA", "Postal Cod": "91360", "Country": "USA", "addrtype": "locality", "addrlocat": "APPROXIMATE" }, "geometry": { "type": "Point", "coordinates": [ -118.837593699999971, 34.1705609 ] } },
{ "type": "Feature", "properties": { "Organizat": "Carleton College", "Address": "One North College Street", "City": "Northfield", "StateTerri": "MN", "Postal Cod": "55057-4044", "Country": "USA", "addrtype": "premise", "addrlocat": "ROOFTOP" }, "geometry": { "type": "Point", "coordinates": [ -93.156217499999983, 44.4613826 ] } },
{ "type": "Feature", "properties": { "Organizat": "Colby College", "Address": "5104 Mayflower Hill", "City": "Waterville", "StateTerri": "ME", "Postal Cod": "04901-8851", "Country": "USA", "addrtype": "route", "addrlocat": "GEOMETRIC_CENTER" }, "geometry": { "type": "Point", "coordinates": [ -69.653213899999983, 44.5560513 ] } },
{ "type": "Feature", "properties": { "Organizat": "College of Charleston", "Address": "66 George Street", "City": "Charleston", "StateTerri": "SC", "Postal Cod": "29424-0001", "Country": "USA", "addrtype": "street_address", "addrlocat": "ROOFTOP" }, "geometry": { "type": "Point", "coordinates": [ -79.9376026, 32.7832238 ] } },
{ "type": "Feature", "properties": { "Organizat": "Denison University", "Address": "Mudd Learning Center", "City": "Granville", "StateTerri": "OH", "Postal Cod": "43023", "Country": "USA", "addrtype": "locality", "addrlocat": "APPROXIMATE" }, "geometry": { "type": "Point", "coordinates": [ -82.5196037, 40.0681192 ] } },
{ "type": "Feature", "properties": { "Organizat": "Dickinson College", "Address": "PO Box 1773", "City": "Carlisle", "StateTerri": "PA", "Postal Cod": "17013", "Country": "USA", "addrtype": "locality", "addrlocat": "APPROXIMATE" }, "geometry": { "type": "Point", "coordinates": [ -77.2002745, 40.2010241 ] } },
{ "type": "Feature", "properties": { "Organizat": "Franklin & Marshall College", "Address": "PO Box 3003", "City": "Lancaster", "StateTerri": "PA", "Postal Cod": "17604-3003", "Country": "USA", "addrtype": "locality", "addrlocat": "APPROXIMATE" }, "geometry": { "type": "Point", "coordinates": [ -76.3055144, 40.0378755 ] } },
{ "type": "Feature", "properties": { "Organizat": "Goucher College", "Address": "1021 Dulaney Valley Road", "City": "Baltimore", "StateTerri": "MD", "Postal Cod": "21204", "Country": "USA", "addrtype": "street_address", "addrlocat": "ROOFTOP" }, "geometry": { "type": "Point", "coordinates": [ -76.600062199999968, 39.4109279 ] } },
{ "type": "Feature", "properties": { "Organizat": "Hamilton College", "Address": "198 College Hill Road", "City": "Clinton", "StateTerri": "NY", "Postal Cod": "13323", "Country": "USA", "addrtype": "street_address", "addrlocat": "ROOFTOP" }, "geometry": { "type": "Point", "coordinates": [ -75.409560799999966, 43.0510679 ] } },
{ "type": "Feature", "properties": { "Organizat": "Kenyon College", "Address": "103 College Drive", "City": "Gambier", "StateTerri": "OH", "Postal Cod": "43022", "Country": "USA", "addrtype": "street_address", "addrlocat": "ROOFTOP" }, "geometry": { "type": "Point", "coordinates": [ -82.3957, 40.3748999 ] } },
{ "type": "Feature", "properties": { "Organizat": "Linfield College", "Address": "900 SE Baker Street", "City": "McMinnville", "StateTerri": "OR", "Postal Cod": "97128-6894", "Country": "USA", "addrtype": "street_address", "addrlocat": "ROOFTOP" }, "geometry": { "type": "Point", "coordinates": [ -123.200656399999986, 45.203060399999984 ] } },
{ "type": "Feature", "properties": { "Organizat": "Occidental College", "Address": "1600 Campus Rd.", "City": "Los Angeles", "StateTerri": "CA", "Postal Cod": "90041", "Country": "USA", "addrtype": "street_address", "addrlocat": "ROOFTOP" }, "geometry": { "type": "Point", "coordinates": [ -118.210692, 34.129581 ] } },
{ "type": "Feature", "properties": { "Organizat": "Purdue University Calumet", "Address": "2200 169th Street", "City": "Hammond", "StateTerri": "IN", "Postal Cod": "46323-2094", "Country": "USA", "addrtype": "street_address", "addrlocat": "ROOFTOP" }, "geometry": { "type": "Point", "coordinates": [ -87.475058099999984, 41.5877606 ] } },
{ "type": "Feature", "properties": { "Organizat": "Saint Lawrence University", "Address": "23 Romoda Drive", "City": "Canton", "StateTerri": "NY", "Postal Cod": "13617", "Country": "USA", "addrtype": "street_address", "addrlocat": "ROOFTOP" }, "geometry": { "type": "Point", "coordinates": [ -75.161333, 44.592148 ] } },
{ "type": "Feature", "properties": { "Organizat": "Skidmore College", "Address": "815 N. Broadway", "City": "Saratoga Springs", "StateTerri": "NY", "Postal Cod": "12866", "Country": "USA", "addrtype": "street_address", "addrlocat": "ROOFTOP" }, "geometry": { "type": "Point", "coordinates": [ -73.7858549, 43.0953761 ] } },
{ "type": "Feature", "properties": { "Organizat": "Southwestern University", "Address": "1001 East University Avenue", "City": "Georgetown", "StateTerri": "TX", "Postal Cod": "78626", "Country": "USA", "addrtype": "street_address", "addrlocat": "ROOFTOP" }, "geometry": { "type": "Point", "coordinates": [ -97.666097699999966, 30.6354901 ] } },
{ "type": "Feature", "properties": { "Organizat": "Swarthmore College", "Address": "500 College Avenue", "City": "Swarthmore", "StateTerri": "PA", "Postal Cod": "19081", "Country": "USA", "addrtype": "premise", "addrlocat": "ROOFTOP" }, "geometry": { "type": "Point", "coordinates": [ -75.351473, 39.9069574 ] } },
{ "type": "Feature", "properties": { "Organizat": "Trinity University", "Address": "One Trinity Place", "City": "San Antonio", "StateTerri": "TX", "Postal Cod": "78212-7200", "Country": "USA", "addrtype": "premise", "addrlocat": "ROOFTOP" }, "geometry": { "type": "Point", "coordinates": [ -98.484146699999968, 29.4630593 ] } },
{ "type": "Feature", "properties": { "Organizat": "University of North Carolina at Charlotte", "Address": "9201 University City Blvd.", "City": "Charlotte", "StateTerri": "NC", "Postal Cod": "28223", "Country": "USA", "addrtype": "premise", "addrlocat": "ROOFTOP" }, "geometry": { "type": "Point", "coordinates": [ -80.730933399999969, 35.305394199999988 ] } },
{ "type": "Feature", "properties": { "Organizat": "Wellesley College", "Address": "106 Central Street", "City": "Wellesley", "StateTerri": "MA", "Postal Cod": "02481", "Country": "USA", "addrtype": "street_address", "addrlocat": "ROOFTOP" }, "geometry": { "type": "Point", "coordinates": [ -71.3085829, 42.293068399999989 ] } },
{ "type": "Feature", "properties": { "Organizat": "Mount Holyoke College", "Address": "50 College St", "City": "South Hadley", "StateTerri": "MA", "Postal Cod": "01075", "Country": "USA", "addrtype": "premise", "addrlocat": "ROOFTOP" }, "geometry": { "type": "Point", "coordinates": [ -72.576669699999982, 42.253734199999982 ] } },
{ "type": "Feature", "properties": { "Organizat": "Guilford College", "Address": "5800 W Friendly Ave", "City": "Greensboro", "StateTerri": "NC", "Postal Cod": "27410", "Country": "USA", "addrtype": "street_address", "addrlocat": "ROOFTOP" }, "geometry": { "type": "Point", "coordinates": [ -79.8896444, 36.092880099999988 ] } },
{ "type": "Feature", "properties": { "Organizat": "Whitman College", "Address": "345 Boyer Avenue", "City": "Walla Walla", "StateTerri": "WA", "Postal Cod": "99362", "Country": "USA", "addrtype": "street_address", "addrlocat": "ROOFTOP" }, "geometry": { "type": "Point", "coordinates": [ -118.3295838, 46.070899 ] } },
{ "type": "Feature", "properties": { "Organizat": "Williams College", "Address": "55 Sawyer Library Drive", "City": "Williamstown", "StateTerri": "MA", "Postal Cod": "01267", "Country": "USA", "addrtype": "route", "addrlocat": "GEOMETRIC_CENTER" }, "geometry": { "type": "Point", "coordinates": [ -73.202319299999985, 42.7145908 ] } },
{ "type": "Feature", "properties": { "Organizat": "Bryn Mawr College", "Address": "101 North Merion Avenue", "City": "Bryn Mawr", "StateTerri": "PA", "Postal Cod": "19010-2899", "Country": "USA", "addrtype": "street_address", "addrlocat": "ROOFTOP" }, "geometry": { "type": "Point", "coordinates": [ -75.312867, 40.0263 ] } },
{ "type": "Feature", "properties": { "Organizat": "Lafayette College", "Address": "710 Sullivan Street", "City": "Easton", "StateTerri": "PA", "Postal Cod": "18042-1797", "Country": "USA", "addrtype": "street_address", "addrlocat": "RANGE_INTERPOLATED" }, "geometry": { "type": "Point", "coordinates": [ -75.211247399999976, 40.705955 ] } },
{ "type": "Feature", "properties": { "Organizat": "Rhodes College", "Address": "2000 North Parkway", "City": "Memphis", "StateTerri": "TN", "Postal Cod": "38112", "Country": "USA", "addrtype": "street_address", "addrlocat": "ROOFTOP" }, "geometry": { "type": "Point", "coordinates": [ -89.989087, 35.1552928 ] } },
{ "type": "Feature", "properties": { "Organizat": "Alexander Street Press", "Address": "3212 Duke Street", "City": "Alexandria", "StateTerri": "VA", "Postal Cod": "22314", "Country": "USA", "addrtype": "street_address", "addrlocat": "ROOFTOP" }, "geometry": { "type": "Point", "coordinates": [ -77.086013799999989, 38.8077552 ] } },
{ "type": "Feature", "properties": { "Organizat": "Brill", "Address": "Plantynstraat 2", "City": "2321 JC Leiden", "StateTerri": null, "Postal Cod": null, "Country": "Netherlands", "addrtype": "street_address", "addrlocat": "ROOFTOP" }, "geometry": { "type": "Point", "coordinates": [ 4.4882571, 52.142525899999988 ] } },
{ "type": "Feature", "properties": { "Organizat": "Clark Art Institute", "Address": "225 South Street", "City": "Williamstown", "StateTerri": "MA", "Postal Cod": "01267", "Country": "USA", "addrtype": "street_address", "addrlocat": "ROOFTOP" }, "geometry": { "type": "Point", "coordinates": [ -73.215272399999975, 42.707921 ] } },
{ "type": "Feature", "properties": { "Organizat": "Preservation Technologies", "Address": "111 Thomson Park Drive", "City": "Cranberry Township", "StateTerri": "PA", "Postal Cod": "16066", "Country": "USA", "addrtype": "street_address", "addrlocat": "RANGE_INTERPOLATED" }, "geometry": { "type": "Point", "coordinates": [ -80.113672799999989, 40.6984811 ] } },
{ "type": "Feature", "properties": { "Organizat": "Coalition for Networked Information", "Address": "21 Dupont Circle, NW", "City": "Washington", "StateTerri": "DC", "Postal Cod": "20036", "Country": "USA", "addrtype": "premise", "addrlocat": "ROOFTOP" }, "geometry": { "type": "Point", "coordinates": [ -77.043809499999966, 38.9088606 ] } },
{ "type": "Feature", "properties": { "Organizat": "Carnegie Mellon University", "Address": "5000 Forbes Ave", "City": "Pittsburgh", "StateTerri": "PA", "Postal Cod": "15213", "Country": "USA", "addrtype": "street_address", "addrlocat": "ROOFTOP" }, "geometry": { "type": "Point", "coordinates": [ -79.943456699999984, 40.4434658 ] } },
{ "type": "Feature", "properties": { "Organizat": "Tulane University", "Address": "7001 Freret Street", "City": "New Orleans", "StateTerri": "LA", "Postal Cod": "70118-5682", "Country": "USA", "addrtype": "premise", "addrlocat": "ROOFTOP" }, "geometry": { "type": "Point", "coordinates": [ -90.122152599999978, 29.9399621 ] } },
{ "type": "Feature", "properties": { "Organizat": "University of Alabama", "Address": "Box 870266", "City": "Tuscaloosa", "StateTerri": "AL", "Postal Cod": "35487-0266", "Country": "USA", "addrtype": "route", "addrlocat": "GEOMETRIC_CENTER" }, "geometry": { "type": "Point", "coordinates": [ -87.2566486, 33.153627899999989 ] } },
{ "type": "Feature", "properties": { "Organizat": "University of Arkansas", "Address": "365 N McIlroy Avenue", "City": "Fayatteville", "StateTerri": "AR", "Postal Cod": "72701-4002", "Country": "USA", "addrtype": "premise", "addrlocat": "ROOFTOP" }, "geometry": { "type": "Point", "coordinates": [ -94.173838099999983, 36.068678399999989 ] } },
{ "type": "Feature", "properties": { "Organizat": "University of California, Santa Barbara", "Address": "UCSB Davidson Library 9010", "City": "Santa Barbara", "StateTerri": "CA", "Postal Cod": "93106-9010", "Country": "USA", "addrtype": "locality", "addrlocat": "APPROXIMATE" }, "geometry": { "type": "Point", "coordinates": [ -119.698190099999977, 34.4208305 ] } },
{ "type": "Feature", "properties": { "Organizat": "University of Florida", "Address": "George A. Smathers Libraries", "City": "Gainesville", "StateTerri": "FL", "Postal Cod": "32611-7000", "Country": "USA", "addrtype": "locality", "addrlocat": "APPROXIMATE" }, "geometry": { "type": "Point", "coordinates": [ -82.324826199999976, 29.6516344 ] } },
{ "type": "Feature", "properties": { "Organizat": "University of Illinois at Urbana-Champaign", "Address": "1408 West Gregory Drive", "City": "Urbana", "StateTerri": "IL", "Postal Cod": "61801", "Country": "USA", "addrtype": "premise", "addrlocat": "ROOFTOP" }, "geometry": { "type": "Point", "coordinates": [ -88.229010399999979, 40.1047044 ] } },
{ "type": "Feature", "properties": { "Organizat": "University of Kansas", "Address": "502 Watson Library", "City": "Lawrence", "StateTerri": "KS", "Postal Cod": "66045-7544", "Country": "USA", "addrtype": "locality", "addrlocat": "APPROXIMATE" }, "geometry": { "type": "Point", "coordinates": [ -95.235250099999973, 38.9716689 ] } },
{ "type": "Feature", "properties": { "Organizat": "University of Missouri", "Address": "1020 Lowery Street", "City": "Columbia", "StateTerri": "MO", "Postal Cod": "65201-5149", "Country": "USA", "addrtype": "street_address", "addrlocat": "ROOFTOP" }, "geometry": { "type": "Point", "coordinates": [ -92.326011699999967, 38.9444906 ] } },
{ "type": "Feature", "properties": { "Organizat": "University of Oregon", "Address": "1299 University of Oregon", "City": "Eugene", "StateTerri": "OR", "Postal Cod": "97403", "Country": "USA", "addrtype": "street_address", "addrlocat": "RANGE_INTERPOLATED" }, "geometry": { "type": "Point", "coordinates": [ -123.0745859, 44.045480199999986 ] } },
{ "type": "Feature", "properties": { "Organizat": "University of Pittsburgh", "Address": "271 Hillman Library", "City": "Pittsburgh", "StateTerri": "PA", "Postal Cod": "15260-7302", "Country": "USA", "addrtype": "locality", "addrlocat": "APPROXIMATE" }, "geometry": { "type": "Point", "coordinates": [ -79.995886399999989, 40.4406248 ] } },
{ "type": "Feature", "properties": { "Organizat": "University of Rochester", "Address": "200 Wallis Hall", "City": "Rochester", "StateTerri": "NY", "Postal Cod": "14627", "Country": "USA", "addrtype": "premise", "addrlocat": "ROOFTOP" }, "geometry": { "type": "Point", "coordinates": [ -77.631174699999988, 43.1263958 ] } },
{ "type": "Feature", "properties": { "Organizat": "University of South Florida", "Address": "4202 East Fowler Avenue", "City": "Tampa", "StateTerri": "FL", "Postal Cod": "33620-5400", "Country": "USA", "addrtype": "premise", "addrlocat": "ROOFTOP" }, "geometry": { "type": "Point", "coordinates": [ -82.412069, 28.0672631 ] } },
{ "type": "Feature", "properties": { "Organizat": "University of Toronto", "Address": "130 St. George Street", "City": "Toronto", "StateTerri": "ON", "Postal Cod": "M5S 1A5", "Country": "Canada", "addrtype": "street_address", "addrlocat": "ROOFTOP" }, "geometry": { "type": "Point", "coordinates": [ -79.399335899999969, 43.664422299999984 ] } },
{ "type": "Feature", "properties": { "Organizat": "University of Wisconsin-Madison", "Address": "728 State Street", "City": "Madison", "StateTerri": "WI", "Postal Cod": "53706", "Country": "USA", "addrtype": "premise", "addrlocat": "ROOFTOP" }, "geometry": { "type": "Point", "coordinates": [ -89.399290499999978, 43.0745839 ] } },
{ "type": "Feature", "properties": { "Organizat": "Vanderbilt University", "Address": "4l9 2lst Avenue South", "City": "Nashville", "StateTerri": "TN", "Postal Cod": "37203-2427", "Country": "USA", "addrtype": "neighborhood", "addrlocat": "APPROXIMATE" }, "geometry": { "type": "Point", "coordinates": [ -86.770545199999972, 36.1369538 ] } },
{ "type": "Feature", "properties": { "Organizat": "Washington University", "Address": "One Brookings Drive", "City": "St. Louis", "StateTerri": "MO", "Postal Cod": "63130", "Country": "USA", "addrtype": "premise", "addrlocat": "ROOFTOP" }, "geometry": { "type": "Point", "coordinates": [ -90.302634599999976, 38.6470653 ] } },
{ "type": "Feature", "properties": { "Organizat": "California Digital Library", "Address": "415 20th Strret", "City": "Oakland", "StateTerri": "CA", "Postal Cod": "94612-2901", "Country": "USA", "addrtype": "street_address", "addrlocat": "RANGE_INTERPOLATED" }, "geometry": { "type": "Point", "coordinates": [ -122.248711199999988, 37.8000627 ] } },
{ "type": "Feature", "properties": { "Organizat": "Cornell University", "Address": "201 Olin Library", "City": "Ithaca", "StateTerri": "NY", "Postal Cod": "14853", "Country": "USA", "addrtype": "locality", "addrlocat": "APPROXIMATE" }, "geometry": { "type": "Point", "coordinates": [ -76.501880699999987, 42.443961399999985 ] } },
{ "type": "Feature", "properties": { "Organizat": "Emory University", "Address": "540 Asbury Circle", "City": "Atlanta", "StateTerri": "GA", "Postal Cod": "30322-2870", "Country": "USA", "addrtype": "street_address", "addrlocat": "ROOFTOP" }, "geometry": { "type": "Point", "coordinates": [ -84.322881399999986, 33.7904328 ] } },
{ "type": "Feature", "properties": { "Organizat": "Indiana University", "Address": "1320 East 10th Street", "City": "Bloomington", "StateTerri": "IN", "Postal Cod": "47405", "Country": "USA", "addrtype": "premise", "addrlocat": "ROOFTOP" }, "geometry": { "type": "Point", "coordinates": [ -86.516895599999984, 39.1710401 ] } },
{ "type": "Feature", "properties": { "Organizat": "Massachusetts Institute of Technology", "Address": "77 Massachusetts Avenue", "City": "Cambridge", "StateTerri": "MA", "Postal Cod": "02139-4307", "Country": "USA", "addrtype": "street_address", "addrlocat": "ROOFTOP" }, "geometry": { "type": "Point", "coordinates": [ -71.0931342, 42.3592539 ] } },
{ "type": "Feature", "properties": { "Organizat": "New York Public Library", "Address": "11 West 40th Street", "City": "New York", "StateTerri": "NY", "Postal Cod": "10018-2788", "Country": "USA", "addrtype": "street_address", "addrlocat": "ROOFTOP" }, "geometry": { "type": "Point", "coordinates": [ -73.982405699999987, 40.7532227 ] } },
{ "type": "Feature", "properties": { "Organizat": "North Carolina State University", "Address": "Box 7111", "City": "Raleigh", "StateTerri": "NC", "Postal Cod": "27695-7111", "Country": "USA", "addrtype": "street_address", "addrlocat": "RANGE_INTERPOLATED" }, "geometry": { "type": "Point", "coordinates": [ -78.720688399999986, 35.9211976 ] } },
{ "type": "Feature", "properties": { "Organizat": "University of Houston", "Address": "114 University Libraries", "City": "Houston", "StateTerri": "TX", "Postal Cod": "77204-2000", "Country": "USA", "addrtype": "premise", "addrlocat": "ROOFTOP" }, "geometry": { "type": "Point", "coordinates": [ -95.342007899999984, 29.7209741 ] } },
{ "type": "Feature", "properties": { "Organizat": "University of Kentucky", "Address": "500 S.  Limestone St.", "City": "Lexington", "StateTerri": "KY", "Postal Cod": "40506-0456", "Country": "USA", "addrtype": "premise", "addrlocat": "ROOFTOP" }, "geometry": { "type": "Point", "coordinates": [ -84.5056839, 38.0407001 ] } },
{ "type": "Feature", "properties": { "Organizat": "University of Miami", "Address": "1300 Memorial Drive", "City": "Coral Gables", "StateTerri": "FL", "Postal Cod": "33146", "Country": "USA", "addrtype": "premise", "addrlocat": "ROOFTOP" }, "geometry": { "type": "Point", "coordinates": [ -80.278690499999968, 25.7211812 ] } },
{ "type": "Feature", "properties": { "Organizat": "University of Minnesota", "Address": "499 Wilson Library", "City": "Minneapolis", "StateTerri": "MN", "Postal Cod": "55455", "Country": "USA", "addrtype": "locality", "addrlocat": "APPROXIMATE" }, "geometry": { "type": "Point", "coordinates": [ -93.2650108, 44.977753 ] } },
{ "type": "Feature", "properties": { "Organizat": "University of Notre Dame", "Address": "221 Hesburgh Library", "City": "Notre Dame", "StateTerri": "IN", "Postal Cod": "46556", "Country": "USA", "addrtype": "premise", "addrlocat": "ROOFTOP" }, "geometry": { "type": "Point", "coordinates": [ -86.234159299999988, 41.7025294 ] } },
{ "type": "Feature", "properties": { "Organizat": "University of Southern California", "Address": "3550  Trousdale Pkwy", "City": "Los Angeles", "StateTerri": "CA", "Postal Cod": "90089-0182", "Country": "USA", "addrtype": "street_address", "addrlocat": "ROOFTOP" }, "geometry": { "type": "Point", "coordinates": [ -118.283725199999978, 34.0201967 ] } },
{ "type": "Feature", "properties": { "Organizat": "University of Texas at Austin", "Address": "1 University Station", "City": "Austin", "StateTerri": "TX", "Postal Cod": "78712", "Country": "USA", "addrtype": "premise", "addrlocat": "ROOFTOP" }, "geometry": { "type": "Point", "coordinates": [ -97.7288552, 30.2850357 ] } },
{ "type": "Feature", "properties": { "Organizat": "University of Washington", "Address": "Box 352900", "City": "Seattle", "StateTerri": "WA", "Postal Cod": "98195-2900", "Country": "USA", "addrtype": "locality", "addrlocat": "APPROXIMATE" }, "geometry": { "type": "Point", "coordinates": [ -122.332070799999968, 47.6062095 ] } },
{ "type": "Feature", "properties": { "Organizat": "Yale University", "Address": "120 High Street", "City": "New Haven", "StateTerri": "CT", "Postal Cod": "06520-8240", "Country": "USA", "addrtype": "street_address", "addrlocat": "ROOFTOP" }, "geometry": { "type": "Point", "coordinates": [ -72.928526299999973, 41.311077199999986 ] } },
{ "type": "Feature", "properties": { "Organizat": "Allegheny College", "Address": "520 North Main Street", "City": "Meadville", "StateTerri": "PA", "Postal Cod": "16335", "Country": "USA", "addrtype": "street_address", "addrlocat": "ROOFTOP" }, "geometry": { "type": "Point", "coordinates": [ -80.145469399999982, 41.648323799999986 ] } },
{ "type": "Feature", "properties": { "Organizat": "Library of Congress", "Address": "101 Independence Ave.,SE", "City": "Washington", "StateTerri": "DC", "Postal Cod": "20540-4000", "Country": "USA", "addrtype": "street_address", "addrlocat": "ROOFTOP" }, "geometry": { "type": "Point", "coordinates": [ -77.004663099999988, 38.8869718 ] } },
{ "type": "Feature", "properties": { "Organizat": "McMaster University", "Address": "1280 Main Street W.", "City": "Hamilton", "StateTerri": "ON", "Postal Cod": "L8S 4L6", "Country": "Canada", "addrtype": "street_address", "addrlocat": "ROOFTOP" }, "geometry": { "type": "Point", "coordinates": [ -79.920286099999984, 43.262244499999987 ] } },
{ "type": "Feature", "properties": { "Organizat": "Middle Tennessee State University", "Address": "James E. Walker Library", "City": "Murfreesboro", "StateTerri": "TN", "Postal Cod": "37132", "Country": "USA", "addrtype": "locality", "addrlocat": "APPROXIMATE" }, "geometry": { "type": "Point", "coordinates": [ -86.39027, 35.8456213 ] } },
{ "type": "Feature", "properties": { "Organizat": "Northeastern University", "Address": "320 Snell Library", "City": "Boston", "StateTerri": "MA", "Postal Cod": "02115-5005", "Country": "USA", "addrtype": "locality", "addrlocat": "APPROXIMATE" }, "geometry": { "type": "Point", "coordinates": [ -71.058880099999968, 42.3600825 ] } },
{ "type": "Feature", "properties": { "Organizat": "Oregon State University", "Address": "121 The Valley Library", "City": "Corvallis", "StateTerri": "OR", "Postal Cod": "97331-4501", "Country": "USA", "addrtype": "street_address", "addrlocat": "ROOFTOP" }, "geometry": { "type": "Point", "coordinates": [ -123.275942299999969, 44.565097899999984 ] } },
{ "type": "Feature", "properties": { "Organizat": "Syracuse University", "Address": "222 Waverly Avenue", "City": "Syracuse", "StateTerri": "NY", "Postal Cod": "13244-2010", "Country": "USA", "addrtype": "street_address", "addrlocat": "ROOFTOP" }, "geometry": { "type": "Point", "coordinates": [ -76.132617, 43.039951 ] } },
{ "type": "Feature", "properties": { "Organizat": "Texas Tech University", "Address": "18th and Boston", "City": "Lubbock", "StateTerri": "TX", "Postal Cod": "79409-0002", "Country": "USA", "addrtype": "intersection", "addrlocat": "APPROXIMATE" }, "geometry": { "type": "Point", "coordinates": [ -101.875471299999973, 33.5797753 ] } },
{ "type": "Feature", "properties": { "Organizat": "American University", "Address": "4400 Massachusetts Avenue", "City": "Washington", "StateTerri": "D.C.", "Postal Cod": "20016-8046", "Country": "USA", "addrtype": "street_address", "addrlocat": "ROOFTOP" }, "geometry": { "type": "Point", "coordinates": [ -77.0887665, 38.936049 ] } },
{ "type": "Feature", "properties": { "Organizat": "Arizona State University", "Address": "Hayden Library", "City": "Tempe", "StateTerri": "AZ", "Postal Cod": "85287-1006", "Country": "USA", "addrtype": "locality", "addrlocat": "APPROXIMATE" }, "geometry": { "type": "Point", "coordinates": [ -111.940005399999976, 33.4255104 ] } },
{ "type": "Feature", "properties": { "Organizat": "Auburn University", "Address": "RBD Library", "City": "Auburn", "StateTerri": "AL", "Postal Cod": "36849-5606", "Country": "USA", "addrtype": "locality", "addrlocat": "APPROXIMATE" }, "geometry": { "type": "Point", "coordinates": [ -85.480782499999975, 32.6098566 ] } },
{ "type": "Feature", "properties": { "Organizat": "Baylor University", "Address": "One Bear Place, #97143", "City": "Waco", "StateTerri": "TX", "Postal Cod": "76798-7143", "Country": "USA", "addrtype": "route", "addrlocat": "GEOMETRIC_CENTER" }, "geometry": { "type": "Point", "coordinates": [ -97.113471399999966, 31.5504078 ] } },
{ "type": "Feature", "properties": { "Organizat": "Binghamton University", "Address": "P.O. Box 6012", "City": "Binghamton", "StateTerri": "NY", "Postal Cod": "13902-6012", "Country": "USA", "addrtype": "locality", "addrlocat": "APPROXIMATE" }, "geometry": { "type": "Point", "coordinates": [ -75.917973799999984, 42.098686699999988 ] } },
{ "type": "Feature", "properties": { "Organizat": "Boston College", "Address": "140 Commonwealth Avenue", "City": "Chestnut Hill", "StateTerri": "MA", "Postal Cod": "02167", "Country": "USA", "addrtype": "street_address", "addrlocat": "ROOFTOP" }, "geometry": { "type": "Point", "coordinates": [ -71.166876099999982, 42.3400645 ] } },
{ "type": "Feature", "properties": { "Organizat": "Brigham Young University", "Address": "3080 Harold B. Lee Library", "City": "Provo", "StateTerri": "UT", "Postal Cod": "84602-6800", "Country": "USA", "addrtype": "premise", "addrlocat": "ROOFTOP" }, "geometry": { "type": "Point", "coordinates": [ -111.649208699999988, 40.248776399999983 ] } },
{ "type": "Feature", "properties": { "Organizat": "Brown University", "Address": "Brown University Library", "City": "Providence", "StateTerri": "RI", "Postal Cod": "2912", "Country": "USA", "addrtype": "locality", "addrlocat": "APPROXIMATE" }, "geometry": { "type": "Point", "coordinates": [ -71.412834299999986, 41.8239891 ] } },
{ "type": "Feature", "properties": { "Organizat": "California Institute of Technology", "Address": "1200 E. California Blvd.", "City": "Pasadena", "StateTerri": "CA", "Postal Cod": "91125-3200", "Country": "USA", "addrtype": "street_address", "addrlocat": "ROOFTOP" }, "geometry": { "type": "Point", "coordinates": [ -118.124513499999978, 34.1390112 ] } },
{ "type": "Feature", "properties": { "Organizat": "Duke University", "Address": "112 Perkins Library", "City": "Durham", "StateTerri": "NC", "Postal Cod": "027708", "Country": "USA", "addrtype": "locality", "addrlocat": "APPROXIMATE" }, "geometry": { "type": "Point", "coordinates": [ -78.898619, 35.9940329 ] } },
{ "type": "Feature", "properties": { "Organizat": "Folger Shakespeare Library", "Address": "201 East Capitol Street, SE", "City": "Washington", "StateTerri": "DC", "Postal Cod": "20003", "Country": "USA", "addrtype": "street_address", "addrlocat": "ROOFTOP" }, "geometry": { "type": "Point", "coordinates": [ -77.003058599999974, 38.8893879 ] } },
{ "type": "Feature", "properties": { "Organizat": "Georgetown University", "Address": "37th and O Streets, NW", "City": "Washington", "StateTerri": "DC", "Postal Cod": "20057-1174", "Country": "USA", "addrtype": "route", "addrlocat": "GEOMETRIC_CENTER" }, "geometry": { "type": "Point", "coordinates": [ -77.0727525, 38.9141355 ] } },
{ "type": "Feature", "properties": { "Organizat": "Georgia Institute of Technology", "Address": "704 Cherry Street", "City": "Atlanta", "StateTerri": "GA", "Postal Cod": "30332-0001", "Country": "USA", "addrtype": "street_address", "addrlocat": "RANGE_INTERPOLATED" }, "geometry": { "type": "Point", "coordinates": [ -84.395462699999982, 33.7739132 ] } },
{ "type": "Feature", "properties": { "Organizat": "Iowa State University", "Address": "302 Parks Library", "City": "Ames", "StateTerri": "IA", "Postal Cod": "50011-2140", "Country": "USA", "addrtype": "premise", "addrlocat": "ROOFTOP" }, "geometry": { "type": "Point", "coordinates": [ -93.648814099999967, 42.0281254 ] } },
{ "type": "Feature", "properties": { "Organizat": "Lehigh University", "Address": "8A East Packer Avenue", "City": "Bethlehem", "StateTerri": "PA", "Postal Cod": "18015-3170", "Country": "USA", "addrtype": "premise", "addrlocat": "ROOFTOP" }, "geometry": { "type": "Point", "coordinates": [ -75.378131, 40.608844799999986 ] } },
{ "type": "Feature", "properties": { "Organizat": "Marquette University", "Address": "P.O. Box 3141", "City": "Milwaukee", "StateTerri": "WI", "Postal Cod": "53201-3141", "Country": "USA", "addrtype": "locality", "addrlocat": "APPROXIMATE" }, "geometry": { "type": "Point", "coordinates": [ -87.906473599999984, 43.0389025 ] } },
{ "type": "Feature", "properties": { "Organizat": "Miami University", "Address": "225 King Library", "City": "Oxford", "StateTerri": "OH", "Postal Cod": "45056", "Country": "USA", "addrtype": "locality", "addrlocat": "APPROXIMATE" }, "geometry": { "type": "Point", "coordinates": [ -84.745231, 39.5069974 ] } },
{ "type": "Feature", "properties": { "Organizat": "Mississippi State University", "Address": "PO Box 5408", "City": "Mississippi State", "StateTerri": "MS", "Postal Cod": "39762-5408", "Country": "USA", "addrtype": "administrative_area_level_1", "addrlocat": "APPROXIMATE" }, "geometry": { "type": "Point", "coordinates": [ -89.398528299999981, 32.3546679 ] } },
{ "type": "Feature", "properties": { "Organizat": "Northwestern University", "Address": "1970 Campus Drive", "City": "Evanston", "StateTerri": "IL", "Postal Cod": "60208-2300", "Country": "USA", "addrtype": "street_address", "addrlocat": "ROOFTOP" }, "geometry": { "type": "Point", "coordinates": [ -87.674066, 42.053528 ] } },
{ "type": "Feature", "properties": { "Organizat": "Pepperdine University", "Address": "24255 Pacific Coast Highway", "City": "Malibu", "StateTerri": "CA", "Postal Cod": "90263", "Country": "USA", "addrtype": "street_address", "addrlocat": "ROOFTOP" }, "geometry": { "type": "Point", "coordinates": [ -118.705735299999958, 34.038975 ] } },
{ "type": "Feature", "properties": { "Organizat": "Rutgers, The State University of New Jersey", "Address": "169 College Avenue,CAC", "City": "New Brunswick", "StateTerri": "NJ", "Postal Cod": "08901-1163", "Country": "USA", "addrtype": "locality", "addrlocat": "APPROXIMATE" }, "geometry": { "type": "Point", "coordinates": [ -74.451818799999984, 40.4862157 ] } },
{ "type": "Feature", "properties": { "Organizat": "Southern Methodist University", "Address": "P.O. Box 750135", "City": "Dallas", "StateTerri": "TX", "Postal Cod": "75275-0135", "Country": "USA", "addrtype": "locality", "addrlocat": "APPROXIMATE" }, "geometry": { "type": "Point", "coordinates": [ -96.7969879, 32.7766642 ] } },
{ "type": "Feature", "properties": { "Organizat": "Temple University", "Address": "1210 Polett Walk", "City": "Philadelphia", "StateTerri": "PA", "Postal Cod": "19122", "Country": "USA", "addrtype": "premise", "addrlocat": "ROOFTOP" }, "geometry": { "type": "Point", "coordinates": [ -75.154457, 39.9809391 ] } },
{ "type": "Feature", "properties": { "Organizat": "The Catholic University of America", "Address": "620 Michigan Avenue, NE", "City": "Washintgon", "StateTerri": "D.C.", "Postal Cod": "20064", "Country": "USA", "addrtype": "premise", "addrlocat": "ROOFTOP" }, "geometry": { "type": "Point", "coordinates": [ -76.9974604, 38.934491199999982 ] } },
{ "type": "Feature", "properties": { "Organizat": "The Ohio State University", "Address": "1858 Neil Avenue Mall", "City": "Columbus", "StateTerri": "OH", "Postal Cod": "43210", "Country": "USA", "addrtype": "street_address", "addrlocat": "ROOFTOP" }, "geometry": { "type": "Point", "coordinates": [ -83.015680299999985, 39.999082199999989 ] } },
{ "type": "Feature", "properties": { "Organizat": "Tufts University", "Address": "16 Dearborn Rd.", "City": "Somerville", "StateTerri": "MA", "Postal Cod": "02144", "Country": "USA", "addrtype": "premise", "addrlocat": "ROOFTOP" }, "geometry": { "type": "Point", "coordinates": [ -71.116322399999987, 42.4048719 ] } },
{ "type": "Feature", "properties": { "Organizat": "Universite Laval", "Address": "Bibliotheque", "City": "Quebec", "StateTerri": "QC", "Postal Cod": "G1V 0A6", "Country": "Canada", "addrtype": "park", "addrlocat": "APPROXIMATE" }, "geometry": { "type": "Point", "coordinates": [ -73.1834352, 46.0855025 ] } },
{ "type": "Feature", "properties": { "Organizat": "University of Alberta", "Address": "University of Alberta Libraries", "City": "Edmonton", "StateTerri": "AB", "Postal Cod": "T6G 2J8", "Country": "Canada", "addrtype": "premise", "addrlocat": "ROOFTOP" }, "geometry": { "type": "Point", "coordinates": [ -113.521733, 53.5258983 ] } },
{ "type": "Feature", "properties": { "Organizat": "University of California, Irvine", "Address": "P.O. Box 19557", "City": "Irvine", "StateTerri": "CA", "Postal Cod": "92623-9557", "Country": "USA", "addrtype": "locality", "addrlocat": "APPROXIMATE" }, "geometry": { "type": "Point", "coordinates": [ -117.794694199999981, 33.6839473 ] } },
{ "type": "Feature", "properties": { "Organizat": "University of Cincinnati", "Address": "640 Langsam Library", "City": "Cincinnati", "StateTerri": "OH", "Postal Cod": "45221-0033", "Country": "USA", "addrtype": "locality", "addrlocat": "APPROXIMATE" }, "geometry": { "type": "Point", "coordinates": [ -84.512019599999988, 39.1031182 ] } },
{ "type": "Feature", "properties": { "Organizat": "University of Colorado at Boulder", "Address": "Norlin Library N210C", "City": "Boulder", "StateTerri": "CO", "Postal Cod": "80309-0184", "Country": "USA", "addrtype": "locality", "addrlocat": "APPROXIMATE" }, "geometry": { "type": "Point", "coordinates": [ -105.270545599999977, 40.0149856 ] } },
{ "type": "Feature", "properties": { "Organizat": "University of Denver", "Address": "2150 East Evans Avenue", "City": "Denver", "StateTerri": "CO", "Postal Cod": "80208-0287", "Country": "USA", "addrtype": "premise", "addrlocat": "ROOFTOP" }, "geometry": { "type": "Point", "coordinates": [ -104.961886599999971, 39.6778989 ] } },
{ "type": "Feature", "properties": { "Organizat": "University of Georgia", "Address": "South Jackson Street", "City": "Athens", "StateTerri": "GA", "Postal Cod": "30602", "Country": "USA", "addrtype": "route", "addrlocat": "GEOMETRIC_CENTER" }, "geometry": { "type": "Point", "coordinates": [ -83.373343899999981, 33.9556488 ] } },
{ "type": "Feature", "properties": { "Organizat": "University of Guelph", "Address": "50 Stone Road East", "City": "Guelph", "StateTerri": "ON", "Postal Cod": "N1G 2W1", "Country": "Canada", "addrtype": "premise", "addrlocat": "ROOFTOP" }, "geometry": { "type": "Point", "coordinates": [ -80.226252399999979, 43.5305188 ] } },
{ "type": "Feature", "properties": { "Organizat": "University of Illinois, Chicago", "Address": "801 S. Morgan MC 234", "City": "Chicago", "StateTerri": "IL", "Postal Cod": "60607", "Country": "USA", "addrtype": "street_address", "addrlocat": "RANGE_INTERPOLATED" }, "geometry": { "type": "Point", "coordinates": [ -88.227270599999983, 42.344983899999988 ] } },
{ "type": "Feature", "properties": { "Organizat": "University of Massachusetts, Amherst", "Address": "154 Hicks Way", "City": "Amherst", "StateTerri": "MA", "Postal Cod": "01003-9275", "Country": "USA", "addrtype": "street_address", "addrlocat": "RANGE_INTERPOLATED" }, "geometry": { "type": "Point", "coordinates": [ -72.5299693, 42.3891571 ] } },
{ "type": "Feature", "properties": { "Organizat": "University of Nebraska-Lincoln", "Address": "P.O. Box  884100", "City": "Lincoln", "StateTerri": "NE", "Postal Cod": "68588-4100", "Country": "USA", "addrtype": "locality", "addrlocat": "APPROXIMATE" }, "geometry": { "type": "Point", "coordinates": [ -96.685198199999988, 40.8257625 ] } },
{ "type": "Feature", "properties": { "Organizat": "University of Oklahoma", "Address": "401 W. Brooks", "City": "Norman", "StateTerri": "OK", "Postal Cod": "73019", "Country": "USA", "addrtype": "premise", "addrlocat": "ROOFTOP" }, "geometry": { "type": "Point", "coordinates": [ -97.445891099999983, 35.20803 ] } },
{ "type": "Feature", "properties": { "Organizat": "University of Ottawa", "Address": "Library, 65 University Private", "City": "Ottawa", "StateTerri": "ON", "Postal Cod": "K1N 6N5", "Country": "Canada", "addrtype": "premise", "addrlocat": "ROOFTOP" }, "geometry": { "type": "Point", "coordinates": [ -75.6841631, 45.423232 ] } },
{ "type": "Feature", "properties": { "Organizat": "University of Richmond", "Address": "G-12 Jepson Hall", "City": "Richmond", "StateTerri": "VA", "Postal Cod": "23173", "Country": "USA", "addrtype": "premise", "addrlocat": "ROOFTOP" }, "geometry": { "type": "Point", "coordinates": [ -77.537231599999984, 37.5783374 ] } },
{ "type": "Feature", "properties": { "Organizat": "University of San Francisco", "Address": "2130 Fulton Street", "City": "San Francisco", "StateTerri": "CA", "Postal Cod": "94117", "Country": "USA", "addrtype": "premise", "addrlocat": "ROOFTOP" }, "geometry": { "type": "Point", "coordinates": [ -122.4502614, 37.7765651 ] } },
{ "type": "Feature", "properties": { "Organizat": "University of South Carolina", "Address": "Thomas Cooper Library", "City": "Columbia", "StateTerri": "SC", "Postal Cod": "29208", "Country": "USA", "addrtype": "locality", "addrlocat": "APPROXIMATE" }, "geometry": { "type": "Point", "coordinates": [ -81.034814399999988, 34.0007104 ] } },
{ "type": "Feature", "properties": { "Organizat": "University of Texas at Arlington", "Address": "Box 19497", "City": "Arlington", "StateTerri": "TX", "Postal Cod": "76019-0497", "Country": "USA", "addrtype": "route", "addrlocat": "GEOMETRIC_CENTER" }, "geometry": { "type": "Point", "coordinates": [ -97.111041899999975, 32.6580062 ] } },
{ "type": "Feature", "properties": { "Organizat": "University of Victoria", "Address": "PO Box 1800 STN CSC", "City": "Victoria", "StateTerri": "B.C.", "Postal Cod": "V8W 3H5", "Country": "Canada", "addrtype": "locality", "addrlocat": "APPROXIMATE" }, "geometry": { "type": "Point", "coordinates": [ -123.365644399999979, 48.4284207 ] } },
{ "type": "Feature", "properties": { "Organizat": "University of Wyoming", "Address": "1000 E. University Avenue", "City": "Laramie", "StateTerri": "WY", "Postal Cod": "82071-3334", "Country": "USA", "addrtype": "street_address", "addrlocat": "ROOFTOP" }, "geometry": { "type": "Point", "coordinates": [ -105.584378699999974, 41.31376 ] } },
{ "type": "Feature", "properties": { "Organizat": "Villanova University", "Address": "800 Lancaster Avenue", "City": "Villanova", "StateTerri": "PA", "Postal Cod": "19085", "Country": "USA", "addrtype": "street_address", "addrlocat": "ROOFTOP" }, "geometry": { "type": "Point", "coordinates": [ -75.344407899999979, 40.0369846 ] } },
{ "type": "Feature", "properties": { "Organizat": "West Virginia University", "Address": "P.O. Box 6069", "City": "Morgantown", "StateTerri": "WV", "Postal Cod": "26506", "Country": "USA", "addrtype": "locality", "addrlocat": "APPROXIMATE" }, "geometry": { "type": "Point", "coordinates": [ -79.955896799999977, 39.629526 ] } },
{ "type": "Feature", "properties": { "Organizat": "Columbia University Libraries", "Address": "535 West 114th Street", "City": "New York", "StateTerri": "NY", "Postal Cod": "10027", "Country": "USA", "addrtype": "premise", "addrlocat": "ROOFTOP" }, "geometry": { "type": "Point", "coordinates": [ -73.9632198, 40.8064029 ] } },
{ "type": "Feature", "properties": { "Organizat": "Dartmouth College", "Address": "Hinman Box 6025", "City": "Hanover", "StateTerri": "NH", "Postal Cod": "03755-3525", "Country": "USA", "addrtype": "locality", "addrlocat": "APPROXIMATE" }, "geometry": { "type": "Point", "coordinates": [ -72.289552599999979, 43.702245099999985 ] } },
{ "type": "Feature", "properties": { "Organizat": "Harvard University", "Address": "1341 Massachusetts Avenue", "City": "Cambridge", "StateTerri": "MA", "Postal Cod": "02138", "Country": "USA", "addrtype": "street_address", "addrlocat": "RANGE_INTERPOLATED" }, "geometry": { "type": "Point", "coordinates": [ -71.1182811, 42.373234 ] } },
{ "type": "Feature", "properties": { "Organizat": "Johns Hopkins University", "Address": "The Sheridan Libraries", "City": "Baltimore", "StateTerri": "MD", "Postal Cod": "21218-2683", "Country": "USA", "addrtype": "locality", "addrlocat": "APPROXIMATE" }, "geometry": { "type": "Point", "coordinates": [ -76.612189299999983, 39.2903848 ] } },
{ "type": "Feature", "properties": { "Organizat": "Montana State University", "Address": "PO Box 173320", "City": "Bozeman", "StateTerri": "MT", "Postal Cod": "59717-3220", "Country": "USA", "addrtype": "locality", "addrlocat": "APPROXIMATE" }, "geometry": { "type": "Point", "coordinates": [ -111.0429339, 45.676997899999989 ] } },
{ "type": "Feature", "properties": { "Organizat": "National Library of Medicine", "Address": "8600 Rockville Pike", "City": "Bethesda", "StateTerri": "MD", "Postal Cod": "20894", "Country": "USA", "addrtype": "street_address", "addrlocat": "ROOFTOP" }, "geometry": { "type": "Point", "coordinates": [ -77.0988323, 38.9959508 ] } },
{ "type": "Feature", "properties": { "Organizat": "New York University", "Address": "70 Washington Square South", "City": "New York", "StateTerri": "NY", "Postal Cod": "10012", "Country": "USA", "addrtype": "premise", "addrlocat": "ROOFTOP" }, "geometry": { "type": "Point", "coordinates": [ -73.997212399999981, 40.729434499999989 ] } },
{ "type": "Feature", "properties": { "Organizat": "Pennsylvania State University", "Address": "510 Paterno Library", "City": "University Park", "StateTerri": "PA", "Postal Cod": "16802", "Country": "USA", "addrtype": "street_address", "addrlocat": "ROOFTOP" }, "geometry": { "type": "Point", "coordinates": [ -77.866033599999966, 40.798188299999985 ] } }
]
}
