{
"type": "FeatureCollection",
"crs": { "type": "name", "properties": { "name": "urn:ogc:def:crs:OGC:1.3:CRS84" } },
                                                                                
"features": [
{ "type": "Feature", "properties": { "Full Name": "Jill Parchuck", "Organizati": "Yale University", "City": "New Haven", "StateTerri": "CT", "Postal Cod": "06520", "Country": "United States", "addrtype": "locality", "addrlocat": "APPROXIMATE", "marker": "2" }, "geometry": { "type": "Point", "coordinates": [ -72.927883499999979, 41.308274 ] } },
{ "type": "Feature", "properties": { "Full Name": "Salwa Patel", "Organizati": "Georgetown University", "City": "Washington", "StateTerri": "DC", "Postal Cod": "20057", "Country": "United States", "addrtype": "locality", "addrlocat": "APPROXIMATE", "marker": "2" }, "geometry": { "type": "Point", "coordinates": [ -77.036870699999966, 38.9071923 ] } },
{ "type": "Feature", "properties": { "Full Name": "Carla Pealer", "Organizati": "Oregon Health & Science University", "City": "Portland", "StateTerri": "OR", "Postal Cod": "97239", "Country": "United States", "addrtype": "locality", "addrlocat": "APPROXIMATE", "marker": "2" }, "geometry": { "type": "Point", "coordinates": [ -122.6764816, 45.523062199999984 ] } },
{ "type": "Feature", "properties": { "Full Name": "Jean Phillips", "Organizati": "Florida State University", "City": "Tallahassee", "StateTerri": "FL", "Postal Cod": "32306", "Country": "United States", "addrtype": "locality", "addrlocat": "APPROXIMATE", "marker": "2" }, "geometry": { "type": "Point", "coordinates": [ -84.2807329, 30.4382559 ] } },
{ "type": "Feature", "properties": { "Full Name": "Lori Phillips", "Organizati": "University of Wyoming", "City": "Laramie", "StateTerri": "WY", "Postal Cod": "82071", "Country": "United States", "addrtype": "locality", "addrlocat": "APPROXIMATE", "marker": "2" }, "geometry": { "type": "Point", "coordinates": [ -105.591100699999984, 41.311366899999989 ] } },
{ "type": "Feature", "properties": { "Full Name": "Jeannette Pierce", "Organizati": "University of Missouri", "City": "Columbia", "StateTerri": "MO", "Postal Cod": "65201", "Country": "United States", "addrtype": "locality", "addrlocat": "APPROXIMATE", "marker": "2" }, "geometry": { "type": "Point", "coordinates": [ -92.334072399999968, 38.9517053 ] } },
{ "type": "Feature", "properties": { "Full Name": "Daphne Plaut", "Organizati": "Kaiser Permanente Center for Health Research", "City": "Portland", "StateTerri": "OR", "Postal Cod": "97227", "Country": "United States", "addrtype": "locality", "addrlocat": "APPROXIMATE", "marker": "2" }, "geometry": { "type": "Point", "coordinates": [ -122.6764816, 45.523062199999984 ] } },
{ "type": "Feature", "properties": { "Full Name": "David Podboy", "Organizati": "Pacific Northwest National Laboratory", "City": "Richland", "StateTerri": "WA", "Postal Cod": "99354", "Country": "United States", "addrtype": "locality", "addrlocat": "APPROXIMATE", "marker": "2" }, "geometry": { "type": "Point", "coordinates": [ -119.284462099999956, 46.2856907 ] } },
{ "type": "Feature", "properties": { "Full Name": "Regina Raboin", "Organizati": "Tufts University", "City": "Medford", "StateTerri": "MA", "Postal Cod": "02155", "Country": "United States", "addrtype": "locality", "addrlocat": "APPROXIMATE", "marker": "2" }, "geometry": { "type": "Point", "coordinates": [ -71.106163899999984, 42.4184296 ] } },
{ "type": "Feature", "properties": { "Full Name": "Melanie Radik", "Organizati": "Brandeis University", "City": "Waltham", "StateTerri": "MA", "Postal Cod": "02453", "Country": "United States", "addrtype": "locality", "addrlocat": "APPROXIMATE", "marker": "2" }, "geometry": { "type": "Point", "coordinates": [ -71.235611299999988, 42.3764852 ] } },
{ "type": "Feature", "properties": { "Full Name": "Rebecca Reznik-Zellen", "Organizati": "University of Massachusetts Medical School", "City": "Worcester", "StateTerri": "MA", "Postal Cod": "01655", "Country": "United States", "addrtype": "locality", "addrlocat": "APPROXIMATE", "marker": "2" }, "geometry": { "type": "Point", "coordinates": [ -71.802293399999982, 42.2625932 ] } },
{ "type": "Feature", "properties": { "Full Name": "Jenn Riley", "Organizati": "McGill University Libraries", "City": "Montreal", "StateTerri": "QC", "Postal Cod": "H3C 6W1", "Country": "Canada", "addrtype": "locality", "addrlocat": "APPROXIMATE", "marker": "2" }, "geometry": { "type": "Point", "coordinates": [ -73.567256, 45.501688899999984 ] } },
{ "type": "Feature", "properties": { "Full Name": "Constance Rinaldo", "Organizati": "Harvard University", "City": "Cambridge", "StateTerri": "MA", "Postal Cod": "02138", "Country": "United States", "addrtype": "locality", "addrlocat": "APPROXIMATE", "marker": "2" }, "geometry": { "type": "Point", "coordinates": [ -71.1097335, 42.3736158 ] } },
{ "type": "Feature", "properties": { "Full Name": "Kendall Roark", "Organizati": null, "City": "Edmonton", "StateTerri": "AB", "Postal Cod": "T6G 2J8", "Country": "Canada", "addrtype": "locality", "addrlocat": "APPROXIMATE", "marker": "2" }, "geometry": { "type": "Point", "coordinates": [ -113.490926699999974, 53.544389 ] } },
{ "type": "Feature", "properties": { "Full Name": "Ben Rogers", "Organizati": "University of Iowa", "City": "Iowa City", "StateTerri": "IA", "Postal Cod": "52242", "Country": "United States", "addrtype": "locality", "addrlocat": "APPROXIMATE", "marker": "2" }, "geometry": { "type": "Point", "coordinates": [ -91.530168299999985, 41.6611277 ] } },
{ "type": "Feature", "properties": { "Full Name": "Mara Rojeski", "Organizati": "Georgetown University", "City": "Washington", "StateTerri": "DC", "Postal Cod": "20057", "Country": "United States", "addrtype": "locality", "addrlocat": "APPROXIMATE", "marker": "2" }, "geometry": { "type": "Point", "coordinates": [ -77.036870699999966, 38.9071923 ] } },
{ "type": "Feature", "properties": { "Full Name": "Joanne Romano", "Organizati": "Texas Medical Center Library", "City": "Houston", "StateTerri": "TX", "Postal Cod": "77030", "Country": "United States", "addrtype": "locality", "addrlocat": "APPROXIMATE", "marker": "2" }, "geometry": { "type": "Point", "coordinates": [ -95.369802799999974, 29.7604267 ] } },
{ "type": "Feature", "properties": { "Full Name": "Traci Ruthkoski", "Organizati": "University of Michigan", "City": "Ann Arbor", "StateTerri": "MI", "Postal Cod": "48109", "Country": "United States", "addrtype": "locality", "addrlocat": "APPROXIMATE", "marker": "2" }, "geometry": { "type": "Point", "coordinates": [ -83.743037799999982, 42.2808256 ] } },
{ "type": "Feature", "properties": { "Full Name": "Annanaomi Sams", "Organizati": "Pacific Northwest National Laboratory", "City": "Richland", "StateTerri": "WA", "Postal Cod": "99352", "Country": "United States", "addrtype": "locality", "addrlocat": "APPROXIMATE", "marker": "2" }, "geometry": { "type": "Point", "coordinates": [ -119.284462099999956, 46.2856907 ] } },
{ "type": "Feature", "properties": { "Full Name": "Leslie Schick", "Organizati": "University of Cincinnati", "City": "Cincinnati", "StateTerri": "OH", "Postal Cod": "45221", "Country": "United States", "addrtype": "locality", "addrlocat": "APPROXIMATE", "marker": "2" }, "geometry": { "type": "Point", "coordinates": [ -84.512019599999988, 39.1031182 ] } },
{ "type": "Feature", "properties": { "Full Name": "Lynne Schmelz", "Organizati": "Harvard University", "City": "Cambridge", "StateTerri": "MA", "Postal Cod": "02138", "Country": "United States", "addrtype": "locality", "addrlocat": "APPROXIMATE", "marker": "2" }, "geometry": { "type": "Point", "coordinates": [ -71.1097335, 42.3736158 ] } },
{ "type": "Feature", "properties": { "Full Name": "Larry Schmidt", "Organizati": "University of Wyoming", "City": "Laramie", "StateTerri": "WY", "Postal Cod": "82071", "Country": "United States", "addrtype": "locality", "addrlocat": "APPROXIMATE", "marker": "2" }, "geometry": { "type": "Point", "coordinates": [ -105.591100699999984, 41.311366899999989 ] } },
{ "type": "Feature", "properties": { "Full Name": "Chris Shaffer", "Organizati": "Oregon Health & Science University", "City": "Portland", "StateTerri": "OR", "Postal Cod": "97239", "Country": "United States", "addrtype": "locality", "addrlocat": "APPROXIMATE", "marker": "2" }, "geometry": { "type": "Point", "coordinates": [ -122.6764816, 45.523062199999984 ] } },
{ "type": "Feature", "properties": { "Full Name": "Evan Simpson", "Organizati": "Tufts University", "City": "Somerville", "StateTerri": "MA", "Postal Cod": "02144", "Country": "United States", "addrtype": "locality", "addrlocat": "APPROXIMATE", "marker": "2" }, "geometry": { "type": "Point", "coordinates": [ -71.099496799999969, 42.387596799999983 ] } },
{ "type": "Feature", "properties": { "Full Name": "Harvinder Singh", "Organizati": "University of Massachusetts, Amherst", "City": "Amherst", "StateTerri": "MA", "Postal Cod": "01003", "Country": "United States", "addrtype": "locality", "addrlocat": "APPROXIMATE", "marker": "2" }, "geometry": { "type": "Point", "coordinates": [ -72.5198537, 42.373221599999987 ] } },
{ "type": "Feature", "properties": { "Full Name": "MacKenzie Smith", "Organizati": "University of California, Davis", "City": "Davis", "StateTerri": "CA", "Postal Cod": "95616", "Country": "United States", "addrtype": "locality", "addrlocat": "APPROXIMATE", "marker": "2" }, "geometry": { "type": "Point", "coordinates": [ -121.740516699999972, 38.5449065 ] } },
{ "type": "Feature", "properties": { "Full Name": "Paul Soderdahl", "Organizati": "University of Iowa", "City": "Iowa City", "StateTerri": "IA", "Postal Cod": "52242", "Country": "United States", "addrtype": "locality", "addrlocat": "APPROXIMATE", "marker": "2" }, "geometry": { "type": "Point", "coordinates": [ -91.530168299999985, 41.6611277 ] } },
{ "type": "Feature", "properties": { "Full Name": "Mark Spasser", "Organizati": "Wayne State University", "City": "Detroit", "StateTerri": "MI", "Postal Cod": "48202", "Country": "United States", "addrtype": "locality", "addrlocat": "APPROXIMATE", "marker": "2" }, "geometry": { "type": "Point", "coordinates": [ -83.045753799999972, 42.331427 ] } },
{ "type": "Feature", "properties": { "Full Name": "Meg Spencer", "Organizati": "Swarthmore College", "City": "Swarthmore", "StateTerri": "PA", "Postal Cod": "19081", "Country": "United States", "addrtype": "locality", "addrlocat": "APPROXIMATE", "marker": "2" }, "geometry": { "type": "Point", "coordinates": [ -75.349912299999971, 39.9020565 ] } },
{ "type": "Feature", "properties": { "Full Name": "Gosia Stergios", "Organizati": "Harvard University", "City": "Cambridge", "StateTerri": "MA", "Postal Cod": "02138", "Country": "United States", "addrtype": "locality", "addrlocat": "APPROXIMATE", "marker": "2" }, "geometry": { "type": "Point", "coordinates": [ -71.1097335, 42.3736158 ] } },
{ "type": "Feature", "properties": { "Full Name": "Carly Strasser", "Organizati": "California Digital Library", "City": "Oakland", "StateTerri": "CA", "Postal Cod": "94612", "Country": "United States", "addrtype": "locality", "addrlocat": "APPROXIMATE", "marker": "2" }, "geometry": { "type": "Point", "coordinates": [ -122.271113699999987, 37.8043637 ] } },
{ "type": "Feature", "properties": { "Full Name": "Gary Strike", "Organizati": "University of Manitoba", "City": "Winnipeg", "StateTerri": "MB", "Postal Cod": "R3T 2N2", "Country": "Canada", "addrtype": "locality", "addrlocat": "APPROXIMATE", "marker": "2" }, "geometry": { "type": "Point", "coordinates": [ -97.137493699999979, 49.8997541 ] } },
{ "type": "Feature", "properties": { "Full Name": "Shan Sutton", "Organizati": "Oregon State University", "City": "Corvallis", "StateTerri": "OR", "Postal Cod": "97331", "Country": "United States", "addrtype": "locality", "addrlocat": "APPROXIMATE", "marker": "2" }, "geometry": { "type": "Point", "coordinates": [ -123.2620435, 44.5645659 ] } },
{ "type": "Feature", "properties": { "Full Name": "Jean-Claude Thill", "Organizati": "University of North Carolina at Charlotte", "City": "Charlotte", "StateTerri": "NC", "Postal Cod": "28223", "Country": "United States", "addrtype": "locality", "addrlocat": "APPROXIMATE", "marker": "2" }, "geometry": { "type": "Point", "coordinates": [ -80.843126699999985, 35.227086899999989 ] } },
{ "type": "Feature", "properties": { "Full Name": "Ling Ting", "Organizati": null, "City": "Fayetteville", "StateTerri": "AR", "Postal Cod": "72701", "Country": "United States", "addrtype": "locality", "addrlocat": "APPROXIMATE", "marker": "2" }, "geometry": { "type": "Point", "coordinates": [ -94.157426299999983, 36.0625795 ] } },
{ "type": "Feature", "properties": { "Full Name": "Robert Tombes", "Organizati": "Virginia Commonwealth University", "City": "Richmond", "StateTerri": "VA", "Postal Cod": "23284", "Country": "United States", "addrtype": "locality", "addrlocat": "APPROXIMATE", "marker": "2" }, "geometry": { "type": "Point", "coordinates": [ -77.436048099999979, 37.5407246 ] } },
{ "type": "Feature", "properties": { "Full Name": "Samuel Traina", "Organizati": "University of California, Merced", "City": "Merced", "StateTerri": "CA", "Postal Cod": "95343", "Country": "United States", "addrtype": "locality", "addrlocat": "APPROXIMATE", "marker": "2" }, "geometry": { "type": "Point", "coordinates": [ -120.482967699999975, 37.302163199999988 ] } },
{ "type": "Feature", "properties": { "Full Name": "Shu-Chen Tsung", "Organizati": "Georgetown University", "City": "Washington", "StateTerri": "DC", "Postal Cod": "20057", "Country": "United States", "addrtype": "locality", "addrlocat": "APPROXIMATE", "marker": "2" }, "geometry": { "type": "Point", "coordinates": [ -77.036870699999966, 38.9071923 ] } },
{ "type": "Feature", "properties": { "Full Name": "Katie Vale", "Organizati": "Harvard University", "City": "Arlington", "StateTerri": "MA", "Postal Cod": "02474", "Country": "United States", "addrtype": "locality", "addrlocat": "APPROXIMATE", "marker": "2" }, "geometry": { "type": "Point", "coordinates": [ -71.156472899999983, 42.415392499999989 ] } },
{ "type": "Feature", "properties": { "Full Name": "Anidza Valentin", "Organizati": "University of Puerto Rico", "City": "Rio Piedras", "StateTerri": "PR", "Postal Cod": "00931", "Country": "United States", "addrtype": "street_number", "addrlocat": "APPROXIMATE", "marker": "2" }, "geometry": { "type": "Point", "coordinates": [ -66.010482499999981, 18.3978052 ] } },
{ "type": "Feature", "properties": { "Full Name": "James Van Loon", "Organizati": "Wayne State University", "City": "Detroit", "StateTerri": "MI", "Postal Cod": "48202", "Country": "United States", "addrtype": "locality", "addrlocat": "APPROXIMATE", "marker": "2" }, "geometry": { "type": "Point", "coordinates": [ -83.045753799999972, 42.331427 ] } },
{ "type": "Feature", "properties": { "Full Name": "Micah Vandegrift", "Organizati": "Florida State University", "City": "Tallahassee", "StateTerri": "FL", "Postal Cod": "32306", "Country": "United States", "addrtype": "locality", "addrlocat": "APPROXIMATE", "marker": "2" }, "geometry": { "type": "Point", "coordinates": [ -84.2807329, 30.4382559 ] } },
{ "type": "Feature", "properties": { "Full Name": "Nelson Vincent", "Organizati": "University of Cincinnati", "City": "Cincinnati", "StateTerri": "OH", "Postal Cod": "45221", "Country": "United States", "addrtype": "locality", "addrlocat": "APPROXIMATE", "marker": "2" }, "geometry": { "type": "Point", "coordinates": [ -84.512019599999988, 39.1031182 ] } },
{ "type": "Feature", "properties": { "Full Name": "Barbara Weir", "Organizati": "Swarthmore College", "City": "Swarthmore", "StateTerri": "PA", "Postal Cod": "19081", "Country": "United States", "addrtype": "locality", "addrlocat": "APPROXIMATE", "marker": "2" }, "geometry": { "type": "Point", "coordinates": [ -75.349912299999971, 39.9020565 ] } },
{ "type": "Feature", "properties": { "Full Name": "Elaine Westbrooks", "Organizati": "University of Michigan", "City": "Ann Arbor", "StateTerri": "MI", "Postal Cod": "48103", "Country": "United States", "addrtype": "locality", "addrlocat": "APPROXIMATE", "marker": "2" }, "geometry": { "type": "Point", "coordinates": [ -83.743037799999982, 42.2808256 ] } },
{ "type": "Feature", "properties": { "Full Name": "Amanda Whitmire", "Organizati": "Oregon State University", "City": "Corvallis", "StateTerri": "OR", "Postal Cod": "97331", "Country": "United States", "addrtype": "locality", "addrlocat": "APPROXIMATE", "marker": "2" }, "geometry": { "type": "Point", "coordinates": [ -123.2620435, 44.5645659 ] } },
{ "type": "Feature", "properties": { "Full Name": "J. Douglas Willen", "Organizati": "Swarthmore College", "City": "Swarthmore", "StateTerri": "PA", "Postal Cod": "19081", "Country": "United States", "addrtype": "locality", "addrlocat": "APPROXIMATE", "marker": "2" }, "geometry": { "type": "Point", "coordinates": [ -75.349912299999971, 39.9020565 ] } },
{ "type": "Feature", "properties": { "Full Name": "Jackie Wirz", "Organizati": "Oregon Health & Science University", "City": "Portland", "StateTerri": "OR", "Postal Cod": "97239", "Country": "United States", "addrtype": "locality", "addrlocat": "APPROXIMATE", "marker": "2" }, "geometry": { "type": "Point", "coordinates": [ -122.6764816, 45.523062199999984 ] } },
{ "type": "Feature", "properties": { "Full Name": "David Woods", "Organizati": "Miami University", "City": "Oxford", "StateTerri": "OH", "Postal Cod": "45056", "Country": "United States", "addrtype": "locality", "addrlocat": "APPROXIMATE", "marker": "2" }, "geometry": { "type": "Point", "coordinates": [ -84.745231, 39.5069974 ] } },
{ "type": "Feature", "properties": { "Full Name": "Sandra Yee", "Organizati": "Wayne State University", "City": "Detroit", "StateTerri": "MI", "Postal Cod": "48202", "Country": "United States", "addrtype": "locality", "addrlocat": "APPROXIMATE", "marker": "2" }, "geometry": { "type": "Point", "coordinates": [ -83.045753799999972, 42.331427 ] } },
{ "type": "Feature", "properties": { "Full Name": "Yuening Zhang", "Organizati": "Case Western Reserve University", "City": "Cleveland", "StateTerri": "OH", "Postal Cod": "44106", "Country": "United States", "addrtype": "locality", "addrlocat": "APPROXIMATE", "marker": "2" }, "geometry": { "type": "Point", "coordinates": [ -81.694360499999974, 41.49932 ] } },
{ "type": "Feature", "properties": { "Full Name": "Lionel Zupan", "Organizati": "Tufts University", "City": "Somerville", "StateTerri": "MA", "Postal Cod": "02144", "Country": "United States", "addrtype": "locality", "addrlocat": "APPROXIMATE", "marker": "2" }, "geometry": { "type": "Point", "coordinates": [ -71.099496799999969, 42.387596799999983 ] } },
{ "type": "Feature", "properties": { "Full Name": "Sayeed Choudhury", "Organizati": "Johns Hopkins University", "City": "Baltimore", "StateTerri": "MD", "Postal Cod": "21218", "Country": "United States", "addrtype": "locality", "addrlocat": "APPROXIMATE", "marker": "2" }, "geometry": { "type": "Point", "coordinates": [ -76.612189299999983, 39.2903848 ] } },
{ "type": "Feature", "properties": { "Full Name": "Fe Consolacion", "Organizati": "University of Michigan", "City": "Ann Arbor", "StateTerri": "MI", "Postal Cod": "48109", "Country": "United States", "addrtype": "locality", "addrlocat": "APPROXIMATE", "marker": "2" }, "geometry": { "type": "Point", "coordinates": [ -83.743037799999982, 42.2808256 ] } },
{ "type": "Feature", "properties": { "Full Name": "Victor Diaz", "Organizati": "University of Puerto Rico", "City": "Rio Piedras", "StateTerri": "PR", "Postal Cod": "00931", "Country": "United States", "addrtype": "street_number", "addrlocat": "APPROXIMATE", "marker": "2" }, "geometry": { "type": "Point", "coordinates": [ -66.010482499999981, 18.3978052 ] } },
{ "type": "Feature", "properties": { "Full Name": "Michelle Edwards", "Organizati": "University of Guelph", "City": "Guelph", "StateTerri": "ON", "Postal Cod": "N1G 2W1", "Country": "Canada", "addrtype": "locality", "addrlocat": "APPROXIMATE", "marker": "2" }, "geometry": { "type": "Point", "coordinates": [ -80.2481666, 43.5448048 ] } },
{ "type": "Feature", "properties": { "Full Name": "Brian Ensor", "Organizati": "The George Washington University", "City": "Washington", "StateTerri": "DC", "Postal Cod": "20052", "Country": "United States", "addrtype": "locality", "addrlocat": "APPROXIMATE", "marker": "2" }, "geometry": { "type": "Point", "coordinates": [ -77.036870699999966, 38.9071923 ] } },
{ "type": "Feature", "properties": { "Full Name": "Pat Flanagan", "Organizati": "Brandeis University", "City": "Waltham", "StateTerri": "MA", "Postal Cod": "02454", "Country": "United States", "addrtype": "locality", "addrlocat": "APPROXIMATE", "marker": "2" }, "geometry": { "type": "Point", "coordinates": [ -71.235611299999988, 42.3764852 ] } },
{ "type": "Feature", "properties": { "Full Name": "Simon Foote", "Organizati": "National Research Council Canada", "City": "Ottawa", "StateTerri": "ON", "Postal Cod": "K1A 0R6", "Country": "Canada", "addrtype": "locality", "addrlocat": "APPROXIMATE", "marker": "2" }, "geometry": { "type": "Point", "coordinates": [ -75.697193099999978, 45.4215296 ] } },
{ "type": "Feature", "properties": { "Full Name": "Brian Gray", "Organizati": "Case Western Reserve University", "City": "Cleveland", "StateTerri": "OH", "Postal Cod": "44106", "Country": "United States", "addrtype": "locality", "addrlocat": "APPROXIMATE", "marker": "2" }, "geometry": { "type": "Point", "coordinates": [ -81.694360499999974, 41.49932 ] } },
{ "type": "Feature", "properties": { "Full Name": "Walter Hall", "Organizati": "Petroleum Institute", "City": "Abu Dhabi", "StateTerri": null, "Postal Cod": null, "Country": "United Arab Emirates", "addrtype": "locality", "addrlocat": "APPROXIMATE", "marker": "2" }, "geometry": { "type": "Point", "coordinates": [ 54.6972774, 24.2991738 ] } },
{ "type": "Feature", "properties": { "Full Name": "Robert Hanner", "Organizati": "University of Guelph", "City": "Guelph", "StateTerri": "ON", "Postal Cod": "N1G 2W1", "Country": "Canada", "addrtype": "locality", "addrlocat": "APPROXIMATE", "marker": "2" }, "geometry": { "type": "Point", "coordinates": [ -80.2481666, 43.5448048 ] } },
{ "type": "Feature", "properties": { "Full Name": "Margaret Henderson", "Organizati": "Virginia Commonwealth University", "City": "Richmond", "StateTerri": "VA", "Postal Cod": "23284", "Country": "United States", "addrtype": "locality", "addrlocat": "APPROXIMATE", "marker": "2" }, "geometry": { "type": "Point", "coordinates": [ -77.436048099999979, 37.5407246 ] } },
{ "type": "Feature", "properties": { "Full Name": "Michelle Hudson", "Organizati": "Yale University", "City": "New Haven", "StateTerri": "CT", "Postal Cod": "06520", "Country": "United States", "addrtype": "locality", "addrlocat": "APPROXIMATE", "marker": "2" }, "geometry": { "type": "Point", "coordinates": [ -72.927883499999979, 41.308274 ] } },
{ "type": "Feature", "properties": { "Full Name": "Clarke Iakovakis", "Organizati": "University of Texas at Arlington", "City": "Arlington", "StateTerri": "TX", "Postal Cod": "76019", "Country": "United States", "addrtype": "locality", "addrlocat": "APPROXIMATE", "marker": "2" }, "geometry": { "type": "Point", "coordinates": [ -97.108065599999989, 32.735687 ] } },
{ "type": "Feature", "properties": { "Full Name": "Wayne Johnston", "Organizati": "University of Guelph", "City": "Guelph", "StateTerri": "ON", "Postal Cod": "N1G 2W1", "Country": "Canada", "addrtype": "locality", "addrlocat": "APPROXIMATE", "marker": "2" }, "geometry": { "type": "Point", "coordinates": [ -80.2481666, 43.5448048 ] } },
{ "type": "Feature", "properties": { "Full Name": "Edward Kairiss", "Organizati": "Yale University", "City": "New Haven", "StateTerri": "CT", "Postal Cod": "06520", "Country": "United States", "addrtype": "locality", "addrlocat": "APPROXIMATE", "marker": "2" }, "geometry": { "type": "Point", "coordinates": [ -72.927883499999979, 41.308274 ] } },
{ "type": "Feature", "properties": { "Full Name": "Michael Kenney", "Organizati": "Case Western Reserve University", "City": "Cleveland", "StateTerri": "OH", "Postal Cod": "44106", "Country": "United States", "addrtype": "locality", "addrlocat": "APPROXIMATE", "marker": "2" }, "geometry": { "type": "Point", "coordinates": [ -81.694360499999974, 41.49932 ] } },
{ "type": "Feature", "properties": { "Full Name": "Teresa Knott", "Organizati": "Virginia Commonwealth University", "City": "Richmond", "StateTerri": "VA", "Postal Cod": "23298", "Country": "United States", "addrtype": "locality", "addrlocat": "APPROXIMATE", "marker": "2" }, "geometry": { "type": "Point", "coordinates": [ -77.436048099999979, 37.5407246 ] } },
{ "type": "Feature", "properties": { "Full Name": "Pierre La Chance", "Organizati": "Kaiser Permanente Center for Health Research", "City": "Portland", "StateTerri": "OR", "Postal Cod": "97227", "Country": "United States", "addrtype": "locality", "addrlocat": "APPROXIMATE", "marker": "2" }, "geometry": { "type": "Point", "coordinates": [ -122.6764816, 45.523062199999984 ] } },
{ "type": "Feature", "properties": { "Full Name": "Mark Leggott", "Organizati": "University of Prince Edward Island", "City": "Charlottetown", "StateTerri": "PE", "Postal Cod": "C1A4P3", "Country": "Canada", "addrtype": "locality", "addrlocat": "APPROXIMATE", "marker": "2" }, "geometry": { "type": "Point", "coordinates": [ -63.131070399999984, 46.23824 ] } },
{ "type": "Feature", "properties": { "Full Name": "Lilly Li", "Organizati": "Texas A&M University", "City": "College Station", "StateTerri": "TX", "Postal Cod": "77843", "Country": "United States", "addrtype": "locality", "addrlocat": "APPROXIMATE", "marker": "2" }, "geometry": { "type": "Point", "coordinates": [ -96.334406799999982, 30.627977 ] } },
{ "type": "Feature", "properties": { "Full Name": "Reese Manceaux", "Organizati": "University of North Carolina at Charlotte", "City": "Charlotte", "StateTerri": "NC", "Postal Cod": "28223", "Country": "United States", "addrtype": "locality", "addrlocat": "APPROXIMATE", "marker": "2" }, "geometry": { "type": "Point", "coordinates": [ -80.843126699999985, 35.227086899999989 ] } },
{ "type": "Feature", "properties": { "Full Name": "Stephen Marine", "Organizati": "University of Cincinnati", "City": "Cincinnati", "StateTerri": "OH", "Postal Cod": "45267", "Country": "United States", "addrtype": "locality", "addrlocat": "APPROXIMATE", "marker": "2" }, "geometry": { "type": "Point", "coordinates": [ -84.512019599999988, 39.1031182 ] } },
{ "type": "Feature", "properties": { "Full Name": "Elaine Martin", "Organizati": "University of Massachusetts Medical School", "City": "Worcester", "StateTerri": "MA", "Postal Cod": "01655", "Country": "United States", "addrtype": "locality", "addrlocat": "APPROXIMATE", "marker": "2" }, "geometry": { "type": "Point", "coordinates": [ -71.802293399999982, 42.2625932 ] } },
{ "type": "Feature", "properties": { "Full Name": "Victoria Martin", "Organizati": "George Mason University", "City": "Fairfax", "StateTerri": "VA", "Postal Cod": "22030", "Country": "United States", "addrtype": "locality", "addrlocat": "APPROXIMATE", "marker": "2" }, "geometry": { "type": "Point", "coordinates": [ -77.3063733, 38.8462236 ] } },
{ "type": "Feature", "properties": { "Full Name": "Michele Matz Hayslett", "Organizati": "University of North Carolina at Chapel Hill", "City": "Chapel Hill", "StateTerri": "NC", "Postal Cod": "27515", "Country": "United States", "addrtype": "locality", "addrlocat": "APPROXIMATE", "marker": "2" }, "geometry": { "type": "Point", "coordinates": [ -79.0558445, 35.9131996 ] } },
{ "type": "Feature", "properties": { "Full Name": "Mark McFarland", "Organizati": "Texas Medical Center Library", "City": "Houston", "StateTerri": "TX", "Postal Cod": "77030", "Country": "United States", "addrtype": "locality", "addrlocat": "APPROXIMATE", "marker": "2" }, "geometry": { "type": "Point", "coordinates": [ -95.369802799999974, 29.7604267 ] } },
{ "type": "Feature", "properties": { "Full Name": "Vanessa Middleton", "Organizati": "Petroleum Institute", "City": "Abu Dhabi", "StateTerri": null, "Postal Cod": null, "Country": "United Arab Emirates", "addrtype": "locality", "addrlocat": "APPROXIMATE", "marker": "2" }, "geometry": { "type": "Point", "coordinates": [ 54.6972774, 24.2991738 ] } },
{ "type": "Feature", "properties": { "Full Name": "Karen Morgenroth", "Organizati": "National Research Council Canada", "City": "Ottawa", "StateTerri": "ON", "Postal Cod": "K1A 0R6", "Country": "Canada", "addrtype": "locality", "addrlocat": "APPROXIMATE", "marker": "2" }, "geometry": { "type": "Point", "coordinates": [ -75.697193099999978, 45.4215296 ] } },
{ "type": "Feature", "properties": { "Full Name": "Daureen Nesdill", "Organizati": "University of Utah", "City": "Salt Lake City", "StateTerri": "UT", "Postal Cod": "84112", "Country": "United States", "addrtype": "locality", "addrlocat": "APPROXIMATE", "marker": "2" }, "geometry": { "type": "Point", "coordinates": [ -111.891047399999977, 40.7607793 ] } },
{ "type": "Feature", "properties": { "Full Name": "Natsuko Nicholls", "Organizati": "University of Michigan", "City": "Ann Arbor", "StateTerri": "MI", "Postal Cod": "48109", "Country": "United States", "addrtype": "locality", "addrlocat": "APPROXIMATE", "marker": "2" }, "geometry": { "type": "Point", "coordinates": [ -83.743037799999982, 42.2808256 ] } },
{ "type": "Feature", "properties": { "Full Name": "Jaquelina Alvarez", "Organizati": "University of Puerto Rico", "City": "Mayaguez", "StateTerri": "PR", "Postal Cod": "00681", "Country": "United States", "addrtype": "route", "addrlocat": "GEOMETRIC_CENTER", "marker": "2" }, "geometry": { "type": "Point", "coordinates": [ -97.531082099999978, 25.8512978 ] } },
{ "type": "Feature", "properties": { "Full Name": "Shawn Averkamp", "Organizati": "University of Iowa", "City": "Iowa City", "StateTerri": "IA", "Postal Cod": "52242", "Country": "United States", "addrtype": "locality", "addrlocat": "APPROXIMATE", "marker": "2" }, "geometry": { "type": "Point", "coordinates": [ -91.530168299999985, 41.6611277 ] } },
{ "type": "Feature", "properties": { "Full Name": "Ted Baldwin", "Organizati": "University of Cincinnati", "City": "Cincinnati", "StateTerri": "OH", "Postal Cod": "45221", "Country": "United States", "addrtype": "locality", "addrlocat": "APPROXIMATE", "marker": "2" }, "geometry": { "type": "Point", "coordinates": [ -84.512019599999988, 39.1031182 ] } },
{ "type": "Feature", "properties": { "Full Name": "David Barber", "Organizati": "Oregon State University", "City": "Corvallis", "StateTerri": "OR", "Postal Cod": "97331", "Country": "United States", "addrtype": "locality", "addrlocat": "APPROXIMATE", "marker": "2" }, "geometry": { "type": "Point", "coordinates": [ -123.2620435, 44.5645659 ] } },
{ "type": "Feature", "properties": { "Full Name": "Donald Barclay", "Organizati": "University of California, Merced", "City": "Merced", "StateTerri": "CA", "Postal Cod": "95343", "Country": "United States", "addrtype": "locality", "addrlocat": "APPROXIMATE", "marker": "2" }, "geometry": { "type": "Point", "coordinates": [ -120.482967699999975, 37.302163199999988 ] } },
{ "type": "Feature", "properties": { "Full Name": "Fabrice Berrue", "Organizati": "University of Prince Edward Island", "City": "Charlottetown", "StateTerri": "PE", "Postal Cod": "C1A 4P3", "Country": "Canada", "addrtype": "locality", "addrlocat": "APPROXIMATE", "marker": "2" }, "geometry": { "type": "Point", "coordinates": [ -63.131070399999984, 46.23824 ] } },
{ "type": "Feature", "properties": { "Full Name": "Rachel Besara", "Organizati": "Florida State University", "City": "Tallahassee", "StateTerri": "FL", "Postal Cod": "32306", "Country": "United States", "addrtype": "locality", "addrlocat": "APPROXIMATE", "marker": "2" }, "geometry": { "type": "Point", "coordinates": [ -84.2807329, 30.4382559 ] } },
{ "type": "Feature", "properties": { "Full Name": "Debbie Bezanson", "Organizati": "The George Washington University", "City": "Washington", "StateTerri": "DC", "Postal Cod": "20052", "Country": "United States", "addrtype": "locality", "addrlocat": "APPROXIMATE", "marker": "2" }, "geometry": { "type": "Point", "coordinates": [ -77.036870699999966, 38.9071923 ] } },
{ "type": "Feature", "properties": { "Full Name": "Rebecca Bichel", "Organizati": "University of Texas at Arlington", "City": "Arlington", "StateTerri": "TX", "Postal Cod": "76019", "Country": "United States", "addrtype": "locality", "addrlocat": "APPROXIMATE", "marker": "2" }, "geometry": { "type": "Point", "coordinates": [ -97.108065599999989, 32.735687 ] } },
{ "type": "Feature", "properties": { "Full Name": "Jane Blumenthal", "Organizati": "University of Michigan", "City": "Ann Arbor", "StateTerri": "MI", "Postal Cod": "48109", "Country": "United States", "addrtype": "locality", "addrlocat": "APPROXIMATE", "marker": "2" }, "geometry": { "type": "Point", "coordinates": [ -83.743037799999982, 42.2808256 ] } },
{ "type": "Feature", "properties": { "Full Name": "L. Maximilian Buja", "Organizati": "Texas Medical Center Library", "City": "Houston", "StateTerri": "TX", "Postal Cod": "77030", "Country": "United States", "addrtype": "locality", "addrlocat": "APPROXIMATE", "marker": "2" }, "geometry": { "type": "Point", "coordinates": [ -95.369802799999974, 29.7604267 ] } },
{ "type": "Feature", "properties": { "Full Name": "Susan Cardinal", "Organizati": "University of Rochester", "City": "Rochester", "StateTerri": "NY", "Postal Cod": "14627", "Country": "United States", "addrtype": "locality", "addrlocat": "APPROXIMATE", "marker": "2" }, "geometry": { "type": "Point", "coordinates": [ -77.610921899999965, 43.16103 ] } },
{ "type": "Feature", "properties": { "Full Name": "Jake Carlson", "Organizati": "Purdue University", "City": "West Lafayette", "StateTerri": "IN", "Postal Cod": "47907", "Country": "United States", "addrtype": "locality", "addrlocat": "APPROXIMATE", "marker": "2" }, "geometry": { "type": "Point", "coordinates": [ -86.9080655, 40.4258686 ] } },
{ "type": "Feature", "properties": { "Full Name": "Kate Carter", "Organizati": "Swarthmore College", "City": "Swarthmore", "StateTerri": "PA", "Postal Cod": "19081", "Country": "United States", "addrtype": "locality", "addrlocat": "APPROXIMATE", "marker": "2" }, "geometry": { "type": "Point", "coordinates": [ -75.349912299999971, 39.9020565 ] } },
{ "type": "Feature", "properties": { "Full Name": "Deborah Charbonneau", "Organizati": "Wayne State University", "City": "Detroit", "StateTerri": "MI", "Postal Cod": "48202", "Country": "United States", "addrtype": "locality", "addrlocat": "APPROXIMATE", "marker": "2" }, "geometry": { "type": "Point", "coordinates": [ -83.045753799999972, 42.331427 ] } },
{ "type": "Feature", "properties": { "Full Name": "April Colosimo", "Organizati": "McGill University Libraries", "City": "Montreal", "StateTerri": "QC", "Postal Cod": "H3A 1Y1", "Country": "Canada", "addrtype": "locality", "addrlocat": "APPROXIMATE", "marker": "2" }, "geometry": { "type": "Point", "coordinates": [ -73.567256, 45.501688899999984 ] } },
{ "type": "Feature", "properties": { "Full Name": "Trisha Cruse", "Organizati": "California Digital Library", "City": "Oakland", "StateTerri": "CA", "Postal Cod": "94612", "Country": "United States", "addrtype": "locality", "addrlocat": "APPROXIMATE", "marker": "2" }, "geometry": { "type": "Point", "coordinates": [ -122.271113699999987, 37.8043637 ] } },
{ "type": "Feature", "properties": { "Full Name": "Felicity Dykas", "Organizati": "University of Missouri", "City": "Columbia", "StateTerri": "MO", "Postal Cod": "65201", "Country": "United States", "addrtype": "locality", "addrlocat": "APPROXIMATE", "marker": "2" }, "geometry": { "type": "Point", "coordinates": [ -92.334072399999968, 38.9517053 ] } },
{ "type": "Feature", "properties": { "Full Name": "Chris Elsik", "Organizati": "University of Missouri", "City": "Columbia", "StateTerri": "MO", "Postal Cod": "65201", "Country": "United States", "addrtype": "locality", "addrlocat": "APPROXIMATE", "marker": "2" }, "geometry": { "type": "Point", "coordinates": [ -92.334072399999968, 38.9517053 ] } },
{ "type": "Feature", "properties": { "Full Name": "Vessela Ensberg", "Organizati": "University of California, Los Angeles", "City": "Los Angeles", "StateTerri": "CA", "Postal Cod": "90095", "Country": "United States", "addrtype": "locality", "addrlocat": "APPROXIMATE", "marker": "2" }, "geometry": { "type": "Point", "coordinates": [ -118.2436849, 34.0522342 ] } },
{ "type": "Feature", "properties": { "Full Name": "Laine Farley", "Organizati": "California Digital Library", "City": "Oakland", "StateTerri": "CA", "Postal Cod": "94612", "Country": "United States", "addrtype": "locality", "addrlocat": "APPROXIMATE", "marker": "2" }, "geometry": { "type": "Point", "coordinates": [ -122.271113699999987, 37.8043637 ] } },
{ "type": "Feature", "properties": { "Full Name": "Susan Fliss", "Organizati": "Harvard University", "City": "Cambridge", "StateTerri": "MA", "Postal Cod": "02138", "Country": "United States", "addrtype": "locality", "addrlocat": "APPROXIMATE", "marker": "2" }, "geometry": { "type": "Point", "coordinates": [ -71.1097335, 42.3736158 ] } },
{ "type": "Feature", "properties": { "Full Name": "Eric Fredericksen", "Organizati": "University of Rochester", "City": "Rochester", "StateTerri": "NY", "Postal Cod": "14627", "Country": "United States", "addrtype": "locality", "addrlocat": "APPROXIMATE", "marker": "2" }, "geometry": { "type": "Point", "coordinates": [ -77.610921899999965, 43.16103 ] } },
{ "type": "Feature", "properties": { "Full Name": "Mike Furlough", "Organizati": "Pennsylvania State University", "City": "University Park", "StateTerri": "PA", "Postal Cod": "16802", "Country": "United States", "addrtype": "neighborhood", "addrlocat": "APPROXIMATE", "marker": "2" }, "geometry": { "type": "Point", "coordinates": [ -77.865312599999982, 40.8147955 ] } },
{ "type": "Feature", "properties": { "Full Name": "Judy Ganson", "Organizati": "University of Arkansas", "City": "Fayatteville", "StateTerri": "AR", "Postal Cod": "72701", "Country": "United States", "addrtype": "locality", "addrlocat": "APPROXIMATE", "marker": "2" }, "geometry": { "type": "Point", "coordinates": [ -94.157426299999983, 36.0625795 ] } },
{ "type": "Feature", "properties": { "Full Name": "Clay Hagler", "Organizati": "Pacific Northwest National Laboratory", "City": "Richland", "StateTerri": "WA", "Postal Cod": "99352", "Country": "United States", "addrtype": "locality", "addrlocat": "APPROXIMATE", "marker": "2" }, "geometry": { "type": "Point", "coordinates": [ -119.284462099999956, 46.2856907 ] } },
{ "type": "Feature", "properties": { "Full Name": "Deborah Halsted", "Organizati": "Texas Medical Center Library", "City": "Houston", "StateTerri": "TX", "Postal Cod": "77030", "Country": "United States", "addrtype": "locality", "addrlocat": "APPROXIMATE", "marker": "2" }, "geometry": { "type": "Point", "coordinates": [ -95.369802799999974, 29.7604267 ] } },
{ "type": "Feature", "properties": { "Full Name": "Jeff Hamerlinck", "Organizati": "University of Wyoming", "City": "Laramie", "StateTerri": "WY", "Postal Cod": "82071", "Country": "United States", "addrtype": "locality", "addrlocat": "APPROXIMATE", "marker": "2" }, "geometry": { "type": "Point", "coordinates": [ -105.591100699999984, 41.311366899999989 ] } },
{ "type": "Feature", "properties": { "Full Name": "Barrie Hayes", "Organizati": "University of North Carolina at Chapel Hill", "City": "Chapel Hill", "StateTerri": "NC", "Postal Cod": "27599", "Country": "United States", "addrtype": "locality", "addrlocat": "APPROXIMATE", "marker": "2" }, "geometry": { "type": "Point", "coordinates": [ -79.0558445, 35.9131996 ] } },
{ "type": "Feature", "properties": { "Full Name": "Bruce Herbert", "Organizati": "Texas A&M University", "City": "College Station", "StateTerri": "TX", "Postal Cod": "77843", "Country": "United States", "addrtype": "locality", "addrlocat": "APPROXIMATE", "marker": "2" }, "geometry": { "type": "Point", "coordinates": [ -96.334406799999982, 30.627977 ] } },
{ "type": "Feature", "properties": { "Full Name": "Patricia Hswe", "Organizati": "Pennsylvania State University", "City": "University Park", "StateTerri": "PA", "Postal Cod": "16802", "Country": "United States", "addrtype": "neighborhood", "addrlocat": "APPROXIMATE", "marker": "2" }, "geometry": { "type": "Point", "coordinates": [ -77.865312599999982, 40.8147955 ] } },
{ "type": "Feature", "properties": { "Full Name": "Chuck Humphrey", "Organizati": "University of Alberta", "City": "Edmonton", "StateTerri": "AB", "Postal Cod": "T6G 2J8", "Country": "Canada", "addrtype": "locality", "addrlocat": "APPROXIMATE", "marker": "2" }, "geometry": { "type": "Point", "coordinates": [ -113.490926699999974, 53.544389 ] } },
{ "type": "Feature", "properties": { "Full Name": "Michael Ireland", "Organizati": "National Research Council Canada", "City": "Ottawa", "StateTerri": "ON", "Postal Cod": "K1A 0R6", "Country": "Canada", "addrtype": "locality", "addrlocat": "APPROXIMATE", "marker": "2" }, "geometry": { "type": "Point", "coordinates": [ -75.697193099999978, 45.4215296 ] } },
{ "type": "Feature", "properties": { "Full Name": "David Isaak", "Organizati": "Kaiser Permanente Center for Health Research", "City": "Portland", "StateTerri": "OR", "Postal Cod": "97227", "Country": "United States", "addrtype": "locality", "addrlocat": "APPROXIMATE", "marker": "2" }, "geometry": { "type": "Point", "coordinates": [ -122.6764816, 45.523062199999984 ] } },
{ "type": "Feature", "properties": { "Full Name": "Zahra Kamarei", "Organizati": "University of Rochester", "City": "Rochester", "StateTerri": "NY", "Postal Cod": "14627", "Country": "United States", "addrtype": "locality", "addrlocat": "APPROXIMATE", "marker": "2" }, "geometry": { "type": "Point", "coordinates": [ -77.610921899999965, 43.16103 ] } },
{ "type": "Feature", "properties": { "Full Name": "Vera Keown", "Organizati": "University of Manitoba", "City": "Winnipeg", "StateTerri": "MB", "Postal Cod": "R3T 2N2", "Country": "Canada", "addrtype": "locality", "addrlocat": "APPROXIMATE", "marker": "2" }, "geometry": { "type": "Point", "coordinates": [ -97.137493699999979, 49.8997541 ] } },
{ "type": "Feature", "properties": { "Full Name": "Inna Kouper", "Organizati": "Indiana University", "City": "Bloomington", "StateTerri": "IN", "Postal Cod": "47405", "Country": "United States", "addrtype": "locality", "addrlocat": "APPROXIMATE", "marker": "2" }, "geometry": { "type": "Point", "coordinates": [ -86.526385699999977, 39.165325 ] } },
{ "type": "Feature", "properties": { "Full Name": "Kate Krause", "Organizati": "Texas Medical Center Library", "City": "Houston", "StateTerri": "TX", "Postal Cod": "77030", "Country": "United States", "addrtype": "locality", "addrlocat": "APPROXIMATE", "marker": "2" }, "geometry": { "type": "Point", "coordinates": [ -95.369802799999974, 29.7604267 ] } },
{ "type": "Feature", "properties": { "Full Name": "Smyth Lai", "Organizati": "Kaiser Permanente Center for Health Research", "City": "Portland", "StateTerri": "OR", "Postal Cod": "97227", "Country": "United States", "addrtype": "locality", "addrlocat": "APPROXIMATE", "marker": "2" }, "geometry": { "type": "Point", "coordinates": [ -122.6764816, 45.523062199999984 ] } },
{ "type": "Feature", "properties": { "Full Name": "Hope Lappen", "Organizati": "The George Washington University", "City": "Washington", "StateTerri": "DC", "Postal Cod": "20052", "Country": "United States", "addrtype": "locality", "addrlocat": "APPROXIMATE", "marker": "2" }, "geometry": { "type": "Point", "coordinates": [ -77.036870699999966, 38.9071923 ] } },
{ "type": "Feature", "properties": { "Full Name": "Kathleen Lehman", "Organizati": "University of Arkansas", "City": "Fayatteville", "StateTerri": "AR", "Postal Cod": "72701", "Country": "United States", "addrtype": "locality", "addrlocat": "APPROXIMATE", "marker": "2" }, "geometry": { "type": "Point", "coordinates": [ -94.157426299999983, 36.0625795 ] } },
{ "type": "Feature", "properties": { "Full Name": "Emily Lin", "Organizati": "University of California, Merced", "City": "Merced", "StateTerri": "CA", "Postal Cod": "95343", "Country": "United States", "addrtype": "locality", "addrlocat": "APPROXIMATE", "marker": "2" }, "geometry": { "type": "Point", "coordinates": [ -120.482967699999975, 37.302163199999988 ] } },
{ "type": "Feature", "properties": { "Full Name": "Wendy Mann", "Organizati": "George Mason University", "City": "Fairfax", "StateTerri": "VA", "Postal Cod": "22030", "Country": "United States", "addrtype": "locality", "addrlocat": "APPROXIMATE", "marker": "2" }, "geometry": { "type": "Point", "coordinates": [ -77.3063733, 38.8462236 ] } },
{ "type": "Feature", "properties": { "Full Name": "Jeffrey Marcus", "Organizati": "University of Manitoba", "City": "Winnipeg", "StateTerri": "MB", "Postal Cod": "R3T 2N2", "Country": "Canada", "addrtype": "locality", "addrlocat": "APPROXIMATE", "marker": "2" }, "geometry": { "type": "Point", "coordinates": [ -97.137493699999979, 49.8997541 ] } },
{ "type": "Feature", "properties": { "Full Name": "Nancy Maron", "Organizati": "ITHAKA", "City": "New York", "StateTerri": "NY", "Postal Cod": "10065", "Country": "United States", "addrtype": "locality", "addrlocat": "APPROXIMATE", "marker": "2" }, "geometry": { "type": "Point", "coordinates": [ -74.005941299999989, 40.7127837 ] } },
{ "type": "Feature", "properties": { "Full Name": "Sandra Martin", "Organizati": "Wayne State University", "City": "Detroit", "StateTerri": "MI", "Postal Cod": "48201", "Country": "United States", "addrtype": "locality", "addrlocat": "APPROXIMATE", "marker": "2" }, "geometry": { "type": "Point", "coordinates": [ -83.045753799999972, 42.331427 ] } },
{ "type": "Feature", "properties": { "Full Name": "Scott Martin", "Organizati": "University of Michigan", "City": "Ann Arbor", "StateTerri": "MI", "Postal Cod": "48109", "Country": "United States", "addrtype": "locality", "addrlocat": "APPROXIMATE", "marker": "2" }, "geometry": { "type": "Point", "coordinates": [ -83.743037799999982, 42.2808256 ] } },
{ "type": "Feature", "properties": { "Full Name": "Ethan Masella", "Organizati": "Brandeis University", "City": "Waltham", "StateTerri": "MA", "Postal Cod": "02454", "Country": "United States", "addrtype": "locality", "addrlocat": "APPROXIMATE", "marker": "2" }, "geometry": { "type": "Point", "coordinates": [ -71.235611299999988, 42.3764852 ] } },
{ "type": "Feature", "properties": { "Full Name": "Owen McCarty", "Organizati": "Oregon Health & Science University", "City": "Portland", "StateTerri": "OR", "Postal Cod": "97239", "Country": "United States", "addrtype": "locality", "addrlocat": "APPROXIMATE", "marker": "2" }, "geometry": { "type": "Point", "coordinates": [ -122.6764816, 45.523062199999984 ] } },
{ "type": "Feature", "properties": { "Full Name": "Heather McCullough", "Organizati": "University of North Carolina at Charlotte", "City": "Charlotte", "StateTerri": "NC", "Postal Cod": "28223", "Country": "United States", "addrtype": "locality", "addrlocat": "APPROXIMATE", "marker": "2" }, "geometry": { "type": "Point", "coordinates": [ -80.843126699999985, 35.227086899999989 ] } },
{ "type": "Feature", "properties": { "Full Name": "Kevin Messner", "Organizati": "Miami University", "City": "Oxford", "StateTerri": "OH", "Postal Cod": "45056", "Country": "United States", "addrtype": "locality", "addrlocat": "APPROXIMATE", "marker": "2" }, "geometry": { "type": "Point", "coordinates": [ -84.745231, 39.5069974 ] } },
{ "type": "Feature", "properties": { "Full Name": "John Millard", "Organizati": "Miami University", "City": "Oxford", "StateTerri": "OH", "Postal Cod": "45056", "Country": "United States", "addrtype": "locality", "addrlocat": "APPROXIMATE", "marker": "2" }, "geometry": { "type": "Point", "coordinates": [ -84.745231, 39.5069974 ] } },
{ "type": "Feature", "properties": { "Full Name": "Donald Moses", "Organizati": "University of Prince Edward Island", "City": "Charlottetown", "StateTerri": "PE", "Postal Cod": "C1A 4P3", "Country": "Canada", "addrtype": "locality", "addrlocat": "APPROXIMATE", "marker": "2" }, "geometry": { "type": "Point", "coordinates": [ -63.131070399999984, 46.23824 ] } },
{ "type": "Feature", "properties": { "Full Name": "James Mullins", "Organizati": "Purdue University", "City": "West Lafayette", "StateTerri": "IN", "Postal Cod": "47907", "Country": "United States", "addrtype": "locality", "addrlocat": "APPROXIMATE", "marker": "2" }, "geometry": { "type": "Point", "coordinates": [ -86.9080655, 40.4258686 ] } },
{ "type": "Feature", "properties": { "Full Name": "Bruce Neville", "Organizati": "Texas A&M University", "City": "College Station", "StateTerri": "TX", "Postal Cod": "77843", "Country": "United States", "addrtype": "locality", "addrlocat": "APPROXIMATE", "marker": "2" }, "geometry": { "type": "Point", "coordinates": [ -96.334406799999982, 30.627977 ] } },
{ "type": "Feature", "properties": { "Full Name": "James Olds", "Organizati": "George Mason University", "City": "Fairfax", "StateTerri": "VA", "Postal Cod": "22030", "Country": "United States", "addrtype": "locality", "addrlocat": "APPROXIMATE", "marker": "2" }, "geometry": { "type": "Point", "coordinates": [ -77.3063733, 38.8462236 ] } }
]
}
